"id","name","address","phone","url","latitude","longitude"
"1","Golden State CrossFit","11174 La Grange Ave, Los Angeles, CA","(818) 665-6512","http://goldenstatecrossfit.com/","34.0423563","-118.4413598"
"3","CrossFit Persist","165 Amboy Ave, #705, Morganville, NJ","(732) 687-1050","http://www.crossfitpersist.com/","40.360365","-74.289418"
"4","Far North CrossFit","17 Finlayson Street, Whangarei, Northland","021 022 09234","http://www.farnorthcrossfit.com","-35.7270373","174.3274186"
"5","CrossFit Dubuque","3188 Hughes Court, Dubuque, IA","(563) 552-8423","http://crossfitdubuque.com/","42.4807599","-90.7091907"
"6","Ballston CrossFit","1110 North Glebe Rd, Arlington, VA","(703) 688-2238","http://www.ballstoncrossfit.com/","38.8837502","-77.1172427"
"8","CrossFit Moorabbin","16 Coachranes Road, Moorabbin, Victoria","+61 (0)418 565 065","http://www.crossfitmoorabbin.com","-37.9422822","145.0619681"
"9","CrossFit Bartlesville","3822 SE Kentucky Suite 13-14, Bartlesville, OK","(918) 350-0120","http://www.crossfitbartlesville.com","36.7552459","-95.9354815"
"10","Armor CrossFit","880 Macguire Road, Unit B, Ocoee, FL","(407) 614-8997","http://www.armorcrossfit.com/","28.556221","-81.543222"
"11","CrossFit 5150","1480 E 28th St, Signal Hill, CA","(714) 883-2182","http://www.crossfit5150.com","33.8080324","-118.1733102"
"12","CrossFit Karlstad","Kolvgatan 1A, Karlstad, Värmlands Län","+46708282471","http://www.crossfitkarlstad.se/","59.3896205","13.4792898"
"13","CrossFit Soul Ruckus","3750 S Mason Road, Katy, TX","(281) 761-7877","http://soulruckus.com/","29.732115","-95.756903"
"14","CrossFit Reebok Stolitsa","4/1 Proektiruemy proezd 5231, Moscow, Moscow","79153737403","http://reebokcrossfitstolitsa.ru/","55.671153847192215","37.438650493316686"
"16","CrossFit Bel Air","350 Granary Road, Forest Hill, MD","(443) 564-1882","http://www.crossfitbelair.com/","39.568371","-76.360305"
"17","CrossFit Sugar Land","5750 New Territory Blvd, Sugar Land, TX","(713) 962-9515","http://crossfitsugarland.com/","29.5902022","-95.6770173"
"18","CrossFit Conshohocken","701 E Elm St, Conshohocken, PA","(215) 435-4484","http://www.crossfitconshohocken.com/","40.073533","-75.293705"
"19","CrossFit 603","98 Old Derry Road, Unit B1, Hudson, NH","(603) 490-3188","http://crossfit603.com/","42.8091956","-71.4136647"
"20","Auxiliary CrossFit","225 Sterling Road, Toronto, ON","(416) 859-8266","http://auxiliarycrossfit.com/","43.6553484","-79.4463025"
"22","CrossFit Honor","7562 Penn Dr., Suite 160, Allentown, PA","(610) 248-8050","http://www.crossfithonor.com","40.5774067","-75.6163645"
"23","CrossFit Reebok Stockport","Reebok Ltd. Pepper Rd, Cheshire, England","447595344833","http://","53.37794437775","-2.1412024056885457"
"24","Aliso CrossFit","6 Journey, Suite 300, Aliso Viejo, CA","(949) 374-9110","http://www.alisocrossfit.com","33.5687355","-117.7283231"
"25","CrossFit Exceed","25003 Pitkin Rd. Unit G200, Spring, TX","(832) 726-2900","http://www.crossfitexceed.com/","30.122481","-95.4396919"
"26","CrossFit 1832","105 E. Main, Bullard, TX","(903) 534-8444","http://crossfitsouthtyler.com/","32.1399108","-95.3210524"
"27","Fit Strong United CrossFit","2310 N Navarro Ste B, Victoria, TX","(361) 648-6696","http://fitstrongunitedcrossfit.com/","28.816634","-96.999895"
"28","CrossFit Xclusive","976 rue Principale, suite 2, Beresford, NB","(506) 226-0607","http://crossfitxclusive.com/","47.6909316","-65.7001882"
"29","CrossFit Snaga Escazu","De la antigua rotonda de Multiplaza de Escazú, 300 mts norte.  Bodegas Roca Azul Center #12, Escazu, San Jose","(506) 2215-0608","http://www.crossfitescazu.com/","9.920695","-84.1461519"
"30","CrossFit 650","1213 San Mateo Avenue, San Bruno, CA","(415) 298-4381","http://crossfit650.com","37.639563","-122.411835"
"31","Sycamore CrossFit","1330 East State Street, Sycamore, IL","(815) 508-4243","http://www.sycamorecrossfit.com/","41.983893","-88.65799"
"32","CrossFit Evviva","234 West 6th Ave., Eugene, OR","(541) 912-7513","http://crossfitevviva.com/","44.0529873","-123.096346"
"33","CrossFit Getsome365","4131 Smith St, Ste C, Bacliff, TX","(713) 855-7362","http://www.CrossFitGetSome365.com","29.504242","-94.997388"
"34","CrossFit Colossus","297 Cambridge Road, Mornington, Tasmania","+61400255351","http://crossfitcolossus.com.au/","-42.857664","147.391538"
"35","CrossFit 781","242 Libbey Parkway, Weymouth, MA","(781) 803-2929","http://www.crossfit-781.com","42.1910978","-70.940384"
"36","CrossFit 416","390 Queens Quay W. Unit 114, Toronto, ON","(416) 901-0416","http://www.crossfit416.ca","43.6379297","-79.3910464"
"38","Yakima YMCA CrossFit","5 N. Naches Ave., Yakima, WA","(509) 972-5276","http://","46.604225","-120.499651"
"39","CrossFit Giant","115 River Rd, Pier 112, Edgewater, NJ","(201) 228-9966","http://www.crossfitgiant.com/","40.8270448","-73.975694"
"40","CrossFit North Burlington","3523 B Walkers Line, Burlington, ON","(289) 208-5348","http://crossfitnorthburlington.ca/","43.4053538","-79.8417618"
"41","CrossFit Mainz","Oppenheimer Strasse 44, Nieder Olm, n.a.","+49 177 797 2025","http://www.crossfit-mainz.de/","49.9045488","8.2012766"
"43","CrossFit West Dublin","Unit 6C, Celbridge, Co. Dublin","(086) 021-7333","http://www.crossfitwestdublin.com/","53.3420058","-6.5185095"
"44","CrossFit Corpo Forte","7908 88th Ave, Edmonton, AB","(780) 893-7424","http://","53.5236542","-113.449469"
"45","CrossFit Reebok Iron Heart","Las Brisas Building Lot #8 Federico Costas St # 54, San Juan, ","(789) 598-9494","http://","18.4180126","-66.0671709"
"46","BVM CrossFit","6711 Burnet Lane, Austin, TX","(512) 779-2099","http://bvmcrossfit.com/","30.342838","-97.736696"
"47","CrossFit 2.0","844 W. San Marcos Blvd, Ste 103, San Marcos, CA","(760) 525-8040","http://www.crossfit2-0.com/","33.136437","-117.183327"
"48","CrossFit Dynamic","Unit 3, Fishguard Road, Haverfordwest, England","01834869932","http://","52.3555177","-1.1743197"
"49","CrossFit SEO","762 W. Union St. Ste A, Athens, OH","(740) 591-0735","http://www.crossfitseo.com","39.3220079","-82.1348809"
"50","CrossFit Triton","801 North Main St Ext, Wallingford, CT","(203) 631-5367","http://www.crossfittriton.com","41.4755619","-72.809859"
"51","CrossFit Experience","8725 Youngerman Ct. Suite 110, Jacksonville, FL","(904) 874-4924","http://www.crossfitexperience.net/","30.195511","-81.749435"
"52","CrossFit Technique","4/21 Raws Crescent, Hume, ACT","(042) 992-7982","http://www.crossfittechnique.com/","-35.392401","149.170019"
"54","CrossFit Zachary","5041 Highway 19, Unit C, Zachary, LA","(626) 255-4523","http://www.crossfitzachary.com/","30.6525218","-91.1497247"
"55","F5 CrossFit","8117 Bourbon Street, Oklahoma City, OK","(405) 202-5333","http://F5 CrossFit","35.461736","-97.657039"
"56","CrossFit Pampa","200 N Hobart, Pampa, TX","(806) 662-1264","http://www.crossfitpampa.com/","35.5319744","-100.9718065"
"57","Be Challenged CrossFit","4795 Us Hwy 96 N Unit 2, Silsbee, TX","(409) 656-4243","http://www.bechallengedcrossfit.com/","30.3570693","-94.1258441"
"58","CrossFit 919","2500 Meridian Parkway, Suite 125, Durham, NC","(919) 656-4503","http://www.crossfit919.com","35.911441","-78.89395"
"59","Helotes CrossFit","12266 Bandera Road Suite 301 & 303, Helotes, TX","(210) 618-1997","http://www.helotescrossfit.com/","29.559078","-98.6721869"
"60","Reebok CrossFit Turku","Virusmäentie, Turku, Varsinais-Suomi","+358405749628","http://","60.4663689","22.2793196"
"61","CrossFit No Tomorrow","78 Fuller St, Collaroy Plateau, NSW","61299721094","http://www.crossfitnotomorrow.com/","-33.726845","151.28759"
"64","CrossFit Gem","1/51 Topham Road, Smeaton Grange, NSW","+61404868889","http://www.crossfitgem.com/","-34.0353018","150.7541218"
"66","CrossFit Faction","Harrison Street Unit 5a, Golden Triable Industrial Estate, Widnes, Halton","07923391312","http://www.crossfitfaction.co.uk/","53.355017","-2.7677041"
"68","Chrysalis CrossFit","46 Georges-Forest Place, Winnipeg, MB","(204) 233-1000","http://chrysaliscrossfit.com/","49.8855764","-97.107525"
"71","CrossFit BETA","Cerrada de Oaxaca 15 Colonia Jardines del Pedregal, CP, Mexico DF","+525551354734","http://","19.3205752","-99.2092897"
"72","CrossFit Reebok 020","Hoogoorddreef 3, Amsterdam, Amsterdam","(020) 609-0410","http://www.reebokcrossfit020.nl/","52.3102476","4.9471634"
"75","CrossFit 14","27233 State Road 56, Wesley Chapel, FL","(860) 798-0038","http://crossfit14.com/","28.1865582","-82.3656624"
"76","Rock Jungle CrossFit","10247 - 184 Street, Edmonton, AB","(780) 454-7625","http://www.rockjunglefitness.com/Rock_Jungle_CrossFit/","53.54515894405964","-113.6390184963505"
"77","CrossFit 904","11366 Trade Court, Suite 4, Jacksonville, FL","(904) 866-0558","http://www.crossfit904.com","30.163994","-81.531813"
"78","CrossFit Blur","8175 E Raintree Dr Suite 2, Scottsdale, AZ","(715) 495-0086","http://www.crossfitblur.com","33.618702","-111.904578"
"79","CrossFit Anaerobic 2","27612 El Lazo, Laguna Niguel, CA","(949) 709-4900","http://www.crossfitanaerobicinc.com/cfanaerobic-laguna-niguel/","33.5630498","-117.7096498"
"80","CrossFit Murray","311 A Solar Dr, Murray, KY","(270) 761-3809","http://crossfitmurray.blogspot.com/","36.6225734","-88.2995006"
"81","Physics CrossFit","7-3809 St-Joseph Blvd., Ottawa, ON","(819) 205-2665","http://physicscrossfit.com/","45.460539","-75.5563605"
"82","Range of Motion CrossFit","Lords, 3 Price Street, Subiaco, Perth, WA","(041) 598-4921","http://","-31.9463443","115.8154245"
"83","CrossFit Ocean Beach","1811 Sunset Cliffs Blvd., San Diego, CA","(503) 568-6741","http://crossfitoceanbeach.com/","32.743149","-117.248635"
"84","CrossFit Visalia","602 E Acequia Ave, Visalia, CA","(559) 623-4427","http://cfvisalia.com/","36.3292848","-119.2865914"
"85","CrossFit Fenrir","845 Creative Drive, Lakeland, FL","(863) 398-3527","http://crossfitfenrir.com/","27.9631099","-81.970197"
"86","CrossFit Fuse","17625 NE 65th St, #140, Redmond, WA","(425) 861-4996","http://www.crossfit-fuse.com/","47.663733","-122.104787"
"88","CrossFit Lugo","Via Puccini n°1, Lugo (Ra), Italy","(335) 668-4815","http://crossfitlugo.blogspot.com/","44.4253238","11.9027978"
"89","CrossFit Hinesville","1875 EG Miles Parkway, Hinesville, GA","(912) 385-3837","http://www.crossfithinesville.com/","31.846877","-81.5959453"
"91","CrossFit Pace Performance","66 Montauk Highway, Amityville, NY","(631) 521-9158","http://paceperformance.net/","40.6714794","-73.4200672"
"92","CrossFit Credence","1340 22nd St. NW, Rochester, MN","(507) 261-7696","http://CrossFitcredence.com","44.045747","-92.482715"
"93","CrossFit 7220","411 S. 20th Street, Laramie, WY","(307) 760-3132","http://crossfit7220.com/","41.3087017","-105.5688778"
"94","FTX CrossFit","1N030 Gary Ave., Carol Stream, IL","(630) 981-4964","http://www.ftxcrossfit.com/","41.8885568","-88.1227058"
"96","CrossFit Emergence","1200 Shakespeare St, Missoula, MT","(406) 531-1712","http://www.crossfitemergence.com/","46.883258","-114.008423"
"97","Comet CrossFit","7836 Oberlin Rd, Elyria, OH","(440) 865-0108","http://cometcrossfit.com/","41.381583","-82.19152"
"98","CrossFit Minotaure","1999 Nobel #3, Sainte-Julie, QC","(514) 266-6191","http://www.crossfitorion.ca","45.578047","-73.3266833"
"99","CrossFit DGA","709 Firetower Rd, Dublin, GA","(478) 290-8885","http://crossfitdga.com/","32.4870211","-82.9216688"
"100","Crossbones CrossFit","80 Regina Rd, Vaughan, ON","(905) 856-9348","http://www.cbfit.ca","43.7724672","-79.6115926"
"101","Deka CrossFit","779 Boulevard Industriel, Blainville, QC","(450) 806-3352","http://www.dekacrossfit.com/","45.6724643","-73.8627723"
"102","CrossFit Intersect","1860 Obispo Avenue, Unit 1, Signal Hill, CA","(714) 553-3336","http://crossfitintersect.com/","33.7910369","-118.1544551"
"103","CrossFit Carbondale","1215 E. Walnut St., Carbondale, IL","(618) 529-5511","http://www.crossfitcarbondale.com/","37.7268901","-89.1937527"
"104","CrossFit Annandale","7861-B Heritage Drive, Annandale, VA","(803) 414-9538","http://www.crossfitannandale.com/","38.8256839","-77.2130768"
"105","CrossFit Parsippany","323 New Rd, Suite 6, Parsippany, NJ","(201) 424-8773","http://crossfitparsippany.com/","40.8553823","-74.3486651"
"106","CrossFit Westgate","1/60 Ablemarle Street, Williamstown North, VIC","(041) 555-1445","http://www.crossfitwestgate.com.au/","-37.850179","144.859368"
"110","CrossFit Kindred","1460 Tully Rd, Ste 608, San Jose, CA","(408) 293-2051","http://www.crossfitkindred.com/","37.3162807","-121.8324378"
"111","CrossFit South San Francisco","384 Oyster Point Blvd, Suite 6, South San Francisco, CA","(650) 676-9782","http://","37.665761","-122.3839988"
"112","CrossFit Kalos Sthenos","19720 Elizabeth Way, Canyon Country, CA","(661) 373-7430","http://www.crossfitks.com","34.4123765","-118.4811261"
"113","South Dade CrossFit","10890 SW 188 Street, Suite 92, Miami, FL","(786) 486-2333","http://southdadecrossfit.com/","25.5931951","-80.3675021"
"114","CrossFit 616","1940 Turner Avenue NW, Grand Rapids, MI","(616) 780-8595","http://www.crossfit616.com/","42.9987365","-85.6785115"
"115","CrossFit Nordvest","Rentemestervej 56, Copenhagen NV, N/A","+45 61 27 24 81","http://","55.7069917","12.5275096"
"116","CrossFit Maitland","219 High Street, Maitland, NSW","(042) 944-3204","http://www.crossfitmaitland.com.au/","-32.739576","151.562023"
"117","CrossFit Wilson","2804 Forest Hills Rd, Wilson, NC","(252) 230-7823","http://","35.709039","-77.952487"
"118","CrossFit Jerusalem","Teddy Stadium, Jerusalem, Israel","(011-972) 54-5250576","http://www.crossfitjerusalem.com/","31.7736","35.224998"
"119","CrossFit Chatswood","5/108 Warrane Rd, Sydney, NSW","(042) 105-6635","http://www.crossfitchatswood.com/","-33.7897703","151.2026127"
"121","CrossFit 417","5108 N 22nd Street, Ozark, MO","(417) 380-3195","http://www.crossfit417.com/","37.0630857","-93.2325531"
"122","Gardens CrossFit","4098 PGA Blvd, Palm Beach Gardens, FL","(561) 630-3118","http://www.gardenscrossfit.com/","26.8423556","-80.0988478"
"123","CrossFit LBC","212 Bristol Pike, Bristol, PA","(610) 849-6448","http://www.crossfitlbc.com/","40.1088704","-74.856768"
"124","CrossFit Explosion","18039 SW Lower Boones Ferry Rd, Portland, OR","(503) 995-4905","http://www.boomfitnesspdx.com/crossfit/","45.3920024","-122.750775"
"125","Cannon CrossFit","5907 Star Lane, Houston, TX","(309) 275-3036","http://www.cannoncrossfit.com/","29.727121","-95.482552"
"126","CrossFit Train","1750 SW 3rd Street, Suite M, Corvallis, OR","(541) 224-3194","http://www.crossfittrain.com/","44.548076","-123.266424"
"127","Searcy CrossFit","921 Hastings Drive, Searcy, AR","(417) 234-4151","http://www.searcycrossfit.com","35.2384227","-91.7205496"
"128","CrossFit SA1","Unit 3, SA1 Business Park Langdon Road, Swansea, Wales","07595520601","http://www.crossfit-sa1.blogspot.com/","51.6204703","-3.9277001"
"129","Kings & Queens CrossFit","2007 Manufacturing Dr, Clinton, IA","(815) 540-0835","http://www.crossfitkingsandqueens.com","41.8278364","-90.2332211"
"130","CrossFit Klamath","1311 Elm Ave, #B, Klamath Falls, OR","(541) 331-4357","http://www.crossfitklamath.com/","42.222753","-121.776332"
"131","CrossFit North Pasadena","3636 E. Colorado Blvd., Pasadena, CA","(626) 617-6037","http://www.crossfitnorthpasadena.com/","34.145888","-118.075251"
"134","CrossFit Drive","23 Beta Court, Suite A, San Ramon, CA","(925) 743-0222","http://crossfit-drive.com/","37.7810258","-121.980989"
"135","CrossFit Harford","1659-D Robin Circle, Forest Hill, MD","(301) 717-5517","http://www.crossfitharford.com","39.5694745","-76.3610796"
"136","CrossFit Napoli","Via Francesco Paolo Tosti 16, Napoli, Italy","+393381940776","http://www.crossfitnapoli.com/","40.8440149","14.2200944"
"137","CrossFit Miles Militis","104 North Lloyd Street, Crestview, FL","(850) 499-4654","http://www.crossfitmilesmilitis.com/","30.7546159","-86.5764394"
"138","Pure Energy CrossFit","313 Center Street, Meadow Lake, SK","(306) 240-7816","http://","54.1313991","-108.4309155"
"139","CrossFit 2232","1201 Main Street, Bryson City, NC","(828) 736-3620","http://www.crossfit2232.com","35.432424","-83.4300807"
"140","Hardbat CrossFit","70 Aleph Drive, Suite B, Newark, DE","(484) 256-0465","http://www.hardbatcrossfit.com/","39.6446479","-75.7290359"
"142","Rocket CrossFit","5720 Rainier Ave. S, Seattle, WA","(206) 853-9181","http://www.rocketcrossfit.com/","47.5506003","-122.277349"
"143","CrossFit Diamond Valley","1b 266 Bolton Street, Melbourne, VIC","+61 0412237344","http://www.ridgecrossfit.com","-37.720435","145.138108"
"144","CrossFit Conway","1195 South Harkrider Street, Conway, AR","(501) 514-1375","http://www.crossfitconway.com/","35.0591748","-92.4250462"
"145","CrossFit 225","17839 Airline Hwy Suite D, Prairieville, LA","(225) 772-6564","http://www.crossfit225.com/","30.336815","-90.9897079"
"146","AthleteEGO CrossFit","1400 NE 125 Street Unit B, North Miami, FL","(786) 419-8880","http://www.athleteegocrossfit.com/","25.889951","-80.170491"
"148","CrossFit Evoke","6925 Farmdale Ave, North Hollywood, CA","(818) 764-1392","http://www.crossfitevoke.com/","34.1971452","-118.3812266"
"149","RDAS CrossFit","Unit 9 Weavers Court, Forest Mill, Selkirk, Selkirkshire","00447903239768","http://www.rdasgym.co.uk/","55.5485","-2.844822"
"150","CrossFit MTS","29A Beaverhall Road, Edinburgh, Scotland","0131 557 0520","http://www.missiontrainingsystems.co.uk/cavementraining.php","55.9648942","-3.1920453"
"151","CrossFit Blainville","14153 Curé-Labelle, app 2, Mirabel, QC","(514) 267-5308","http://crossfitblainville.ca/","45.7090036","-73.9348736"
"152","GETFIT CrossFit","Lot 19990, Ground Floor, Taman Alam Jalan Telanai, Beribi Gadong, Brunei Darussalam","+6738870996","http://getfitcrossfit.com/","4.878573956986203","114.89295154809952"
"155","CrossFit Terrebonne L'usine","3551 boulevard des entreprises, Terrebonne, QC","(514) 723-2336","http://www.lusineterrebonne.ca/","45.7300329","-73.6770729"
"160","CrossFit Presov","Tomašikova 54, Presov, Slovakia","00421 948 017 098","http://www.rebelsgym.sk/","49.0167938","21.2286724"
"161","CrossFit 716","84 Sweeney Street, North Tonawanda, NY","(716) 553-6003","http://www.crossfit716.net/716/","43.022457","-78.876831"
"162","CrossFit Sudbury","1351-E Kelly Lake Rd. Unit 7, Sudbury, ON","(705) 521-4790","http://www.crossfitsudbury.com/","46.4649097","-81.0298837"
"164","CrossFit Novem","1222-24 Shackamaxon Street, Philadelphia, PA","(215) 510-1284","http://www.crossfitnovem.com","39.9695907","-75.1345424"
"165","Reebok CrossFit Almere","Hopperzuigerstraat 53, Almere, Flevoland","+31614377930","http://www.crossfitalmere.nl/","52.4017333","5.2657158"
"166","CrossFit Aftermath","11 John St., North Aurora, IL","(630) 618-7331","http://www.crossfitaftermath.com/index.php/","41.804699","-88.325494"
"167","XS CrossFit","6522 E Ponderosa Drive, Parker, CO","(303) 910-0833","http://xscrossfit.com/","39.539896","-104.766009"
"168","CrossFit 3000 South Melbourne","82-86 Clark Street, South Melbourne, VIC","+61401015711","http://crossfit3000.com/","-37.83007","144.960374"
"169","CrossFit Trigger Point","5321 Industrial Oaks Parkway, Suite 110A, Austin, TX","(512) 300-2804","http://www.crossfittriggerpoint.com","30.2387529","-97.8399421"
"170","Animus CrossFit","17401 NW 2nd Ave, #8, Miami Gardens, FL","(414) 467-6839","http://www.animuscrossfit.com/","25.9341751","-80.2046854"
"171","Titan CrossFit","100 Cockeysville Road, Suite 150, Cockeysville, MD","(410) 382-5522","http://www.titancrossfit.com/","39.4818605","-76.6455532"
"172","CrossFit UNO","Paseo de la Asunción 317 Norte, Nave #3, Colonia Bellavista, Estado de Mexico","52 (722) 4378679","http://crossfituno.mx/","19.255429689332978","-99.57309487883145"
"173","Eternity CrossFit","32242 Paseo Adelanto, Suite E, San Juan Capistrano, CA","(949) 291-7314","http://eternitycrossfit.com/index.php","33.493746","-117.664529"
"174","CrossFit South Rockland","80 Red Schoolhouse Road, Unit 110, Chestnut Ridge, NY","(845) 825-2230","http://fitnessforperformanceandlife.blogspot.com/","41.079109","-74.053487"
"175","CrossFit True","850 Sherman Avenue, Hamden, CT","(203) 448-7745","http://www.true-athletics.com/","41.4003891","-72.9149529"
"176","Track Town CrossFit","771 Williamette Street, Eugene, OR","(541) 514-9980","http://www.tracktowncrossfit.com/","44.051336","-123.092395"
"177","Fuerza CrossFit","Carrera 43 # 31-73, Medellin, Antioquia","01157-3218512317","http://fuerzacrossfit.com/","6.2321355","-75.5689422"
"178","CrossFit 6330","70 Lion St, Albany, WA","(089) 842-2762","http://crossfit6330.com.au/","-35.0053368","117.8721942"
"179","Reebok CrossFit Loreto","San Jeronimo 240; Col. Loreto y campamento; Del. Alvaro Obregon, Mexico City, Mexico","01 55 53 39 56 74","http://","19.3356079","-99.1977376"
"180","CrossFit Industrious","21619 Hwy 99 , Ste H, Lynnwoon, WA","(206) 755-6290","http://www.crossfitindustrious.com","47.8028229","-122.328442"
"181","C4 CrossFit","20527 FM 1093, #C6, Richmond, TX","(713) 254-6866","http://www.c4crossfit.com/","29.7023651","-95.7402713"
"182","CrossFit Athletic Academy","1600 N. Ocean Ave, Suite 16, Holtsville, NY","(631) 334-7893","http://www.crossfitathleticacademy.com/","40.811423","-73.020539"
"183","CrossFit Lewisburg","437 10th Street, Lewisburg, PA","(570) 412-1412","http://www.crossfitlewisburg.com","40.965323","-76.894243"
"184","CrossFit Brookvale","20 Wattle Road, Brookvale, NSW","+61414983101","http://strength-power-speed.blogspot.com/","-33.7680406","151.2770258"
"185","CrossFit North Arlington","608 E. Front St., Arlington, TX","(817) 408-6219","http://","32.737466","-97.101283"
"186","CrossFit Alfa","Av. Fuente de Tritones 16 Lomas de San Isidro, Naucalpan, EDO","0115215559674113","http://www.CrossFitAlfa.com","19.4305306","-99.2269614"
"187","CrossFit of Fremont","37330 Cedar Blvd., Suites I & J, Newark, CA","(480) 734-7904","http://www.CrossFitoffremont.com","37.541289","-122.020449"
"189","CrossFit South Okanagan","#104-9503 Cedar Ave, Summerland, BC","(250) 718-6344","http://www.crossfitsouthokanagan.com","49.5872591","-119.6780462"
"190","CrossFit Montgomery","41 East Railroad Street, Montgomery, AL","(877) 907-4141","http://www.crossfitmontgomery.com/","32.3857897","-86.3098049"
"191","New London CrossFit","436 Broad Street, Unit B, New London, CT","(203) 927-0025","http://www.newlondoncrossfit.com","41.362702","-72.115105"
"193","CrossFit Sugarcreek","110 Andreas Dr, Sugarcreek, OH","(330) 852-2456","http://www.sugarcreekfitness.com/Sugarcreek_Fitness/Crossfit.html","40.501117","-81.634806"
"194","Letrono CrossFit","976 N. Marshall Way, Layton, UT","(801) 294-6777","http://www.letronocrossfit.com/","41.0740734","-111.9965726"
"195","Avalon CrossFit","545 Medford Street, Charlestown, MA","(925) 997-8440","http://www.avaloncrossfit.com","42.383961","-71.070779"
"196","CrossFit Takeover","585 South Birdneck Rd. Ste 107, Virginia Beach, VA","(310) 972-0995","http://www.crossfittakeover.com/","36.8209869","-75.9999901"
"197","CrossFit Hub","3 Irving Rd, Irving Industrial Building #01-01, Singapore, Singapore","(659) 739-7809","http://www.CrossFitHub.com","1.3349922","103.902074"
"198","NHB CrossFit","414 W Grand Parkway South, Suite 197, Katy, TX","(281) 838-4034","http://ww.NHBCrossFit.com","29.7753185","-95.7789141"
"199","District CrossFit","1525 Half St. SW, Washington, DC","(202) 507-8255","http://www.DistrictCrossFit.com","38.871227","-77.011071"
"200","High Altitude CrossFit","336 Spring Creek Circle, Unit 1, Gypsum, CO","(970) 343-9040","http://www.highaltitudecrossfit.com","39.6343617","-106.9160943"
"201","CrossFit Avon","Unit 15, Merton Road, Bristol, Bristol","07970 493643","http://www.crossfitavon.com/","51.4826464","-2.5869296"
"202","Be CrossFit","2201 SE Indian st. Unit A-4, Stuart, FL","(772) 285-5709","http://www.BeCrossFit.com","27.1664204","-80.2260183"
"203","CrossFit Norfolk","9309 Granby Street, Norfolk, VA","(757) 375-9291","http://www.crossfitoceanview.com","36.9460374","-76.2593695"
"204","CrossFit Liverpool","Unit 18-19 Love Lane, Liverpool, England","07407154901","http://crossfitliverpool.blogspot.com/","53.4170279","-2.9946518"
"205","CrossFit Steele Creek","9301 Forsyth Park Drive, Suite C, Charlotte, NC","(704) 714-7775","http://CrossFitSteeleCreek.com","35.135965","-80.953308"
"206","Mountain River CrossFit","416 37th St, Parkersburg, WV","(304) 488-6468","http://www.crossfitmov.com/","39.2971547","-81.5485652"
"207","CrossFit Hybrid Athletics","7 Hyde Street, Stamford, CT","(203) 913-5228","http://Hybridathletics.net","41.0939909","-73.5174562"
"209","CrossFit Revival","461 River Ave, Eugene, OR","(541) 510-7643","http://www.crossfitrevival.com","44.0965967","-123.1181744"
"210","Celtic CrossFit","17 Leeway Court Leeway Industrial Estate, Newport, Wales","07866 721175","http://www.celticcrossfit.co.uk","51.5725025","-2.946479"
"211","TC Total CrossFit","10781 E Cherry Bend Rd, Traverse City, MI","(231) 409-7960","http://www.tctotalcrossfit.com/","44.7934644","-85.6409636"
"212","CrossFit Sonora","14951 Camage Rd., Sonora, CA","(209) 352-5575","http://www.crossfitsonora.com","38.0661321","-120.2683582"
"213","Tamalpais CrossFit","555 E. Francisco Blvd, Suite 19, San Rafael, CA","(415) 948-8453","http://www.tamcrossfit.com","37.96584","-122.5150934"
"214","Live Train Play CrossFit","1111 Rancho Conejo Blvd. #106, Newbury Park, CA","(818) 281-5433","http://livetrainplay.com/","34.19401","-118.923719"
"217","CrossFit Ben Nevis","unit 11, Ben Nevis Estate, fort william, Scotland","0447979645798","http://www.fitnessculture.co.uk","56.8250619","-5.0851811"
"219","CrossFit Kennesaw","1349 Old 41 Hwy., Marietta, GA","(404) 931-8773","http://www.crossfitkennesaw.com","33.978553","-84.5639939"
"220","CrossFit Vitality","7285 Westwinds Blvd NW, Concord, NC","(704) 721-5555","http://www.crossfitvitality.com","35.387229","-80.7225268"
"221","CrossFit LC Valley","2981 Thain Grade, Lewiston, ID","(208) 798-8888","http://www.lcvalleycrossfit.com","46.393655","-116.989966"
"222","CrossFit Forward","5933 Plank Road, Suite J, Fredericksburg, VA","(540) 226-9560","http://www.crossfitforward.com/","38.293334","-77.579249"
"223","CrossFit Alive","4/149 Old Pacific Hwy, Oxenford, QLD","(043) 123-3222","http://crossfitalive.com.au/","-27.8880373","153.3138889"
"224","Tribal CrossFit","6170 West Chandler Blvd, Suite 4, Chandler, AZ","(602) 492-7348","http://www.tribalcrossfit.com","33.3060571","-111.9484225"
"225","CrossFit Maui","393 Lehuakona St, Kahului, HI","(808) 633-1765","http://www.CrossFitParadise.com","20.882697","-156.451738"
"226","CrossFit Innovate","1049 Martin Luther King Jr. Blvd., Northport, AL","(205) 333-4000","http://www.crossfitinnovate.com","33.2296057","-87.5688849"
"227","CrossFit Surge","10621 Irma Dr, Unit C, Denver, CO","(303) 907-3682","http://www.crossfitsurge.com","39.890542","-104.9645831"
"228","CrossFit Gig Harbor","6521 43rd Ave NW, Suite ""A"", Gig Harbor, WA","(253) 858-5432","http://www.crossfitgigharbor.com/","47.3157671","-122.5951434"
"230","CrossFit Shoalhaven","1/33 Tom thumb Ave Sth, Nowra, NSW","(024) 424-2624","http://www.crossfitshoalhaven.com","-34.911998","150.585651"
"231","CrossFit SAC","4755 Auburn Boulevard, Suite C, Sacramento, CA","(530) 559-2283","http://www.crossfitsac.com","38.6553367","-121.35299"
"232","CrossFit eo","Weltenburger Str. 6, Munich, Bavaria","00491771765858","http://crossfit-eo.de/","48.1410706","11.6270872"
"233","Fit Bodies CrossFit","412 Olympia Drive, Bloomington, IL","(309) 242-3478","http://www.fitbodiesmovement.com/","40.470225","-88.907389"
"234","Transition CrossFit","2334 Wyecroft Rd  Unit B11, Oakville, ON","(647) 284-5901","http://transitioncrossfit.com","43.4130159","-79.7309528"
"235","Geaux CrossFit","3854 American Way, Baton Rouge, LA","(619) 300-1309","http://geauxcrossfit.com","30.4175819","-91.0534969"
"236","CrossFit CFS","Ambergris Caye, Boca del Rio, San Pedro","(501) 206-2464","http://www.crossfitcfs.com/","18.001592","-87.9432837"
"237","Project Fitness CrossFit","2514 Johns Street, Garden City, KS","(620) 640-5732","http://www.projectfitness.org","37.9879815","-100.8819764"
"238","CrossFit On The Road","Rue Th. Delbar 33, Waterloo, Brabant Wallon","+32 472 76 53 54","http://www.CrossFitOnTheRoad.be","50.71469","4.3991"
"239","CrossFit Stony Brook","22 Woods Corner Rd, Setauket, NY","(631) 445-3740","http://www.crossfitstonybrook.com","40.9263576","-73.1192775"
"240","CrossFit Aledo","10315 East Bankhead Highway, Aledo, TX","(817) 204-9830","http://www.crossfitaledo.com","32.720416","-97.613328"
"241","CrossFit Mt. Hood","335 NE 8th St, Gresham, OR","(503) 491-5100","http://crossfitmthood.com/","45.503431","-122.427463"
"243","CrossFit Fresno","90 E. Escalon Avenue Suite #109, Fresno, CA","(559) 492-0432","http://www.crossfitfresno.com","36.82727","-119.788388"
"244","CrossFit Crux","118 Sandiford Drive Unit 2, Stouffville, ON","(416) 662-1637","http://www.crossfitcrux.com","43.9635604","-79.2697446"
"245","CrossFit Tuscaloosa","2405 Paul Bryant Drive, Tuscaloosa, AL","(205) 561-9900","http://www.cftuscaloosa.com/","33.204312","-87.56717"
"247","CrossFit Rebels","2077 Sunnydale Blvd, Clearwater, FL","(727) 253-4971","http://www.crossfitrebels.com","27.9868847","-82.7507945"
"248","CrossFit 42 South","2-4 Patrick St, Hobart, Tasmania","(041) 211-0308","http://www.crossfit42s.com.au","-42.876458","147.325406"
"249","Capital City CrossFit","1615 W. Jefferson, #A, Springfield, IL","(217) 341-9173","http://www.c3crossfit.com","39.808431","-89.683157"
"250","Cooee CrossFit","37 Lemnos Street, Shenton Park, WA","(042) 554-7005","http://www.cooeecrossfit.com.au","-31.955252","115.79402"
"251","CrossFit Victorious","9421 FM 2920, Suite 10B, Tomball, TX","(281) 627-4302","http://www.crossfitvictorious.com/","30.084587","-95.570666"
"252","Natural Selection CrossFit","6818 W. Kennewick Ave. Ste F, Kennewick, WA","(509) 845-9796","http://www.nscrossfit.com/","46.209759","-119.211727"
"253","CrossFit Northampton (CFN)","Unit 22 Rothersthorpe Avenue Rothersthorpe Industrial Estate Far Cotton, Northampton, England","0044 7980 707557","http://www.northamptoncrossfit.co.uk/","52.2251248","-0.9073229"
"254","In Shape CrossFit","calle flerida nolasco #3 arroyo hondo, Santo Domingo, Distrito Nacional","(809) 566-2889","http://www.inshapecrossfit.com/","18.4879254","-69.9360037"
"255","Crossfit Kapiti","109D Rimu Road, Paraparaumu, Wellington","+64 274 737 139","http://www.crossfitkapiti.co.nz","-40.9192069","174.9991296"
"259","Outpost CrossFit","2755 N. Delany Rd., Waukegan, IL","(847) 744-0112","http://www.outpostcrossfit.com","42.402978","-87.904169"
"261","CrossFit 425","1628 130th Ave NE, Bellevue, WA","(425) 885-4466","http://www.crossfit425.com/","47.6248727","-122.1670383"
"262","CrossFit Ludus","1449 Hornby St, Vancouver, BC","(604) 719-7745","http://www.crossfitludus.com/","49.2758325","-123.132323"
"263","Evansville CrossFit","1230 Heinlein Road, Evansville, IN","(812) 205-0131","http://evansvillecrossfit.com","38.054201","-87.539602"
"265","Cascade CrossFit","29700 SE High Point Way, Issaquah, WA","(425) 941-0394","http://www.cascadecrossfit.com","47.534265","-121.946343"
"267","CrossFit Rising","13 Foster St., Bergenfield, NJ","(201) 338-2405","http://www.crossfitrising.com","40.914999","-73.99921"
"268","CrossFit Broadbeach","8/51 Johnston Street, Southport, QLD","(041) 317-2643","http://www.crossfitbroadbeach.com.au","-27.964797","153.405156"
"269","CrossFit Roar","3-80 Webster Road, Stafford, Brisbane, QLD","(043) 711-7187","http://crossfitroar.com/","-27.4149902","153.0158307"
"270","Black Hills CrossFit","1420 Deadwood Ave, Ste B, Rapid City, SD","(605) 786-4317","http://www.blackhillscrossfit.com/","44.1404585","-103.2719621"
"271","CrossFit Rife","5741 Bayside Drive Suite 108, Virginia Beach, VA","(757) 227-6757","http://www.crossfitrife.com/","36.8984654","-76.1855936"
"274","CrossFit Exertion","2 Blue Water Rd, Bedford, NS","(902) 452-6328","http://crossfitexertion.com/","44.72311","-63.707169"
"275","U R (You Are) CrossFit","2252 Merchant Ave, Unit 101, Odessa, FL","(727) 534-6967","http://urcrossfit.com/","28.1933789","-82.6313415"
"276","Green Mountain CrossFit","654 Granger Road, Suite 4, Berlin, VT","(802) 229-4131","http://www.theconfluencevt.org/crossfit","44.2157092","-72.5591612"
"278","CrossFit Sanity","211 S. Market Street, Sullivan, IL","(217) 474-7197","http://www.sanitycrossfit.com/","39.5972329","-88.6186585"
"279","CrossFit Chatsworth","9144 Jordan Avenue, Chatsworth, CA","(818) 357-5547","http://www.crossfitchatsworth.com","34.2367888","-118.6039307"
"282","CrossFit Impact","1880-1882 Johns Drive, Gleview, IL","(847) 858-2807","http://www.impactcrossfit.com/","42.0897778","-87.8100111"
"283","CrossFit Origin","8 Glenwood Drive, Thornton, NSW","61422902708","http://www.crossfitorigin.com.au/","-32.788815","151.635216"
"284","N-Raged CrossFit","33 New Jersey Avenue Ste 2, Flemington, NJ","(908) 451-3504","http://www.n-ragedfitness.com","40.515021","-74.853855"
"285","CrossFit Fort Wayne","829 Lawrence Dr, #2, Fort Wayne, IN","(937) 346-4966","http://www.crossfitfortwayne.com","41.078093","-85.206371"
"287","Flux CrossFit","2251 McTavish St., Regina, SK","(306) 541-5807","http://www.fluxregina.ca/flux/home.html","50.4429506","-104.6340214"
"289","CrossFit Intensify","1485 Mohawk Blvd, Springfield, OR","(541) 337-5627","http://crossfitintensify.com/","44.0586412","-123.0002985"
"290","CrossFit OM","Hemen Motors, Kishor Kumar Ganguly lane, Juhu Tara road, Mumbai, Maharashtra","061449586967","http://www.crossfitom.com","19.7514798","75.7138884"
"291","CrossFit Estes Park","1755 State Hwy 66, Estes Park, CO","(970) 227-0499","http://www.crossfitestespark.com","40.361156","-105.555997"
"292","CrossFit Amsterdam","Karperweg 39, Amsterdam, Amsterdam","+31 6 24 317 826","http://www.CrossFitAmsterdam.nl","52.3474614","4.8542324"
"295","CrossFit Energy","1930 N CLEVELAND MASSILLON RD, Akron, OH","(330) 606-0106","http://www.crossfitenergy.com/","41.1879511","-81.6364292"
"296","CrossFit Hamilton","92 North Main Street, Building 3A, Windsor, NJ","(609) 915-8516","http://crossfithamilton.net/","40.247102","-74.575658"
"297","CrossFit Newtown","11 Friends Lane   Suite 111, Newtown, PA","(215) 860-9660","http://www.crossfitnewtown.com","40.2280871","-74.9151152"
"298","CrossFit Prime","220 Geiger Rd, Unit 105 & 106, Philadelphia, PA","(215) 873-4571","http://www.crossfitprime.com/","34.072734","-83.6352986"
"299","CrossFit Anaheim","1731 S Claudina Way, Anaheim, CA","(949) 354-4509","http://crossfitanaheim.com/","33.80528","-117.9012201"
"300","CrossFit South Central Mass","28 Hastings St., Unit #3, Mendon, MA","(508) 714-9640","http://crossfitsouthcentralmass.com","42.103126","-71.556438"
"301","Derby City CrossFit","139 Breckinridge Ln, Louisville, KY","(502) 641-2980","http://dccrossfit.com/","38.251821","-85.65404"
"303","Comal CrossFit","21965 Hwy 46 West, Bulverde, TX","(210) 445-7131","http://www.comalcrossfit.com/","29.795659","-98.444908"
"304","CrossFit Refinery","528 N. Americana Blvd., Boise, ID","(208) 891-7015","http://www.crossfitrefinery.com/","43.6179834","-116.2160228"
"305","Clear Lake CrossFit","500 W NASA Pkwy, Suite A, Webster, TX","(832) 385-0085","http://clearlakecf.squarespace.com/","29.53476","-95.1220923"
"306","CrossFit Reaction","85 David C Francis St, Greenville, SC","(207) 590-4422","http://www.crossfitreaction.com/","34.8474656","-82.3929512"
"307","CrossFit Feel Good","1/51 Leighton Place, Hornsby Heights, NSW","61 407 033 841","http://www.crossfitfeelgood.com.au/","-33.694639","151.114041"
"309","Crossfit Irvine","1392 McGaw Avenue, Irvine, CA","(714) 263-5093","http://www.crossfitirvine.com","33.6987559","-117.8541033"
"310","CrossFit Athlete Lab","3225 Country Drive, Little Canada, MN","(612) 770-4322","http://www.TheAthleteLab.com","45.0412878","-93.1009773"
"311","CrossFit Warrenton","32 S. Second Street, Warrenton, VA","(703) 338-5154","http://www.crossfitwarrenton.com/","38.7125791","-77.7951707"
"312","CrossFit SW Austin","9301 Highway 290W Suite 104, Austin, TX","(512) 292-0549","http://crossfitswaustin.com/","30.2319927","-97.9259027"
"313","Vagabond CrossFit","15 Hampden Drive, South Easton, MA","(508) 930-8734","http://vagabondcrossfit.com/","42.047284","-71.071884"
"314","CrossFit Brasil","Rua Clélia, 970, Lapa, Sao Paulo","(011)23671837","http://www.crossfitbrasil.com.br","-23.5249102","-46.6918541"
"315","CrossFit Spartanburg","330 Tenosha Drive, Spartanburg, SC","(410) 271-5910","http://www.crossfitspartanburg.com/","34.9974855","-81.9814311"
"316","CrossFit TNT","3683 New Town Blvd., Saint Charles, MO","(636) 724-6464","http://www.crossfit-tnt.com","38.8309837","-90.5184245"
"317","CrossFit 864","213 West Main Street, Clinton, SC","(864) 833-7781","http://www.crossfit864.com","34.4734034","-81.8815891"
"319","Oakland County CrossFit","169 W. Clarkston Road, Lake Orion, MI","(248) 613-3528","http://oaklandcountycrossfit.com/","42.766819","-83.243346"
"321","CrossFit EPIC","1545 Willow Creek Dr, Iowa City, IA","(319) 853-8477","http://www.crossfitepic.com","41.641155","-91.5624689"
"323","CrossFit East Cobb","4696 Lower Roswell Road Suite 700, Marietta, GA","(404) 459-7388","http://www.crossfiteastcobb.com","33.964397","-84.414935"
"324","Carport CrossFit","1901 1st Ave South, Irondale, AL","(205) 527-3133","http://www.carportcrossfit.blogspot.com","33.53779781422601","-86.7082145282078"
"325","CoreTactix CrossFit","4140 Tuller Road, Suite 122, Dublin, OH","(614) 336-3780 ext.2","http://site.coretactix.com/?page_id=352","40.1077681","-83.0970407"
"328","CrossFit Durango","360 S. Camino Del Rio, Durango, CO","(970) 769-6903","http://www.crossfitdurango.com","37.252368","-107.87448"
"329","CrossFit Oshawa","712 Wilson Road S, Oshawa, ON","(905) 447-5682","http://www.crossfitoshawa.com","43.8834003","-78.8355721"
"331","Breaking Point CrossFit","1153 Pioneer Rd Unit O, Burlington, ON","(416) 827-7175","http://www.breakingpointcrossfit.com","43.3631879","-79.8015762"
"332","Antioch CrossFit","401 Sunset Drive, Suite K, Antioch, CA","(925) 753-7533","http://www.antiochcrossfit.com","37.9985246","-121.7957039"
"333","Rocklin CrossFit","4420 Granite Drive, Suite 100, Rocklin, CA","(916) 625-0121","http://www.rocklincrossfit.com","38.7966477","-121.2159694"
"334","CrossFit 180","906 S State Rd 39, Lebanon, IN","(765) 336-0180","http://Crossfit180.blogspot.com","40.0274935","-86.4751952"
"336","Bravo CrossFit","145 Palisade Street #L3, Dobbs Ferry, NY","(914) 882-0518","http://BravoCrossFit.com","41.0159539","-73.8754382"
"337","CrossFit OTG","3330 Bargaintown Rd, Egg Harbor Township, NJ","(856) 513-5960","http://www.crossfitotg.com/","39.374425","-74.579071"
"341","CrossFit UpCountry Maui","850 Haliimaile Road, (Hali'imaile) Makawao, HI","(808) 281-6925","http://crossfitupcountrymaui.com/","20.8683688","-156.3404949"
"342","CrossFit West Seattle","4200 SW Admiral Way, Suite B, Seattle, WA","(509) 670-0150","http://www.crossfitws.com","47.5814143","-122.385227"
"343","CrossFit BodyM","5/213 The Entrance Road Erina, Erina, NSW","(042) 323-7204","http://www.crossfitbodym.com","-33.43508","151.385292"
"344","Brazosport CrossFit","607 S Lazy Ln, Clute, TX","(979) 549-6006","http://www.brazosportcrossfit.com/","29.014945","-95.412637"
"345","Challenge Fitness CrossFit","17030 SE 1st St., Suite 101, Vancouver, WA","(360) 901-2721","http://www.challengefitnesscrossfit.com/Challenge_Fitness_CrossFit/Welcome.html","45.6214246","-122.4963829"
"346","CrossFit Tracy","4220 Commercial Drive, Suite 18, Tracy, CA","(510) 329-3885","http://crossfittracy.com/","37.768031","-121.428646"
"348","CrossFit Coronado","160 C. Avenue, Coronado, CA","(281) 851-1613","http://www.crossfitcoronado.com/","32.697193","-117.1717402"
"351","Double Diamond CrossFit","965 59th Avenue #A, Greeley, CO","(970) 302-2024","http://www.doublediamondcrossfit.com/","40.422165","-104.77569"
"353","CrossFit Saratoga","8 Woodland Court, Ballston Spa, NY","(518) 884-0671","http://www.crossfitsaratoga.com","43.028953","-73.853747"
"354","CrossFit St. Augustine","1701 Lakeside Avenue, Suite 3, St. Augustine, FL","(904) 806-1937","http://crossfitstaugustine.com","29.8698751","-81.3295694"
"355","CrossFit Supremacy","8 Nelson Avenue, Padstow, NSW","+61410646054","http://www.crossfitsupremacy.com.au","-33.935997","151.027865"
"356","CrossFit Richmond","116 Murphy Street, Richmond, VIC","(040) 015-1288","http://www.crossfitrichmond.com/","-37.818316","145.009551"
"358","CrossFit Rutherford","325 West Rutherford Blvd., Murfreesboro, TN","(615) 533-6074","http://www.crossfitrutherford.com","35.8192569","-86.3989965"
"359","CrossFit Bozeman","2308 N 7th Ave, Suite H, Bozeman, MT","(406) 595-4986","http://www.crossfitbozeman.com","45.702463","-111.044312"
"360","RAW CrossFit GB","19 Laurier Rd., Penetanguishine, ON","(705) 529-9348","http://rawcrossfit.ca","44.7799938","-79.9124328"
"361","SF CrossFit","5150 SW 48th Way #607, Davie, FL","(954) 931-1484","http://www.sfbbcrossfit.com","26.057387","-80.208882"
"362","CrossFit 914","12-C West Main Street, Elmsford, NY","(914) 602-6432","http://www.crossfit914.com","41.054211","-73.82098"
"363","Crossfit South Shore L.I.","1507-2 Smithtown Avenue, Bohemia, NY","(631) 472-1930","http://www.crossfitssli.com","40.780443","-73.108811"
"364","Saskpro CrossFit Sports Conditioning","184 South Industrial Drive, Bay 7, Prince Albert, SK","(403) 229-0704","http://www.saskprohockey.com","53.1814563","-105.745827"
"365","Titanium CrossFit","823 McPhee Ave, Courtenay, BC","(250) 897-8121","http://www.titaniumcrossfit.blogspot.com/","49.6854823","-125.0036927"
"366","Transform CrossFit","1589 Reed Rd, Unit 9-10, Pennington, NJ","(609) 851-3693","http://www.transformcrossfit.com","40.298278","-74.797619"
"367","Southern CrossFit","1/10 Whyalla St, Willetton, WA","+61 424606173","http://www.southernxfit.com","-32.041163","115.881592"
"368","CrossFit Madtown","7576 Lisa Lane, Middleton, WI","(608) 282-5610","http://www.crossfitmadtown.com/","43.1090227","-89.5116049"
"369","CrossFit LifeStyle","18420 Hart St, Reseda, CA","(818) 705-6500","http://Crossfit-lifestyle.com","34.197107","-118.534158"
"370","CrossFit PTC","303 Kelly Drive, Suite 8 and 9, Peachtree, GA","(770) 617-1307","http://www.crossfitptc.com","33.3800229","-84.5791698"
"371","Frisco CrossFit","9410 Dallas Pkwy, #150, Frisco, TX","(469) 879-4158","http://www.friscocrossfit.com","33.156296","-96.839399"
"372","CrossFit Oslo","Nydalsveien 17, Oslo, Oslo","22 71 80 71","http://www.crossfitoslo.no","59.9478409","10.7645659"
"373","KSAC CrossFit","2045 Lauwiliwili Street, Building 1, Kapolei, HI","(843) 263-4849","http://www.CrossFitEwaBeach.com","21.323269235787745","-158.09053663016357"
"374","CrossFit Horizons","Unit 2, 34 Rural Drive, Sandgate, NSW","61 02 40238696","http://crossfithorizons.blogspot.com/","-32.876737","151.7100351"
"376","CrossFit Overdrive","7371 Elmbridge Way, Richmond, BC","(604) 278-4848","http://www.crossfitoverdrive.com","49.1720297","-123.1435149"
"377","CrossFit Cheshire","360 Sandbank Road, Cheshire, CT","(203) 239-0351","http://www.crossfitcheshire.com/","41.536412","-72.90258"
"378","CrossFit Minneapolis","131 Chestnut Ave, Suite 110, Minneapolis, MN","(507) 581-2087","http://www.crossfitminneapolis.com","44.976942","-93.2841694"
"379","CrossFit Movement For Life","805 Aerovista Place, Ste 104, San Luis Obispo, CA","(805) 440-6065","http://movementforlife.typepad.com/crossfitmovementforlife","35.2434883","-120.6403331"
"380","Coolum Beach CrossFit","Lysaght, Coolum Beach, QLD","(040) 775-2489","http://www.crossfitcoolumbeach.com.au","-26.5206406","153.0593017"
"382","Reebok CrossFit Zurich","Letzigraben 165, Zurich, Switzerland","0041765694350","http://www.crossfitzuerich.ch","47.3737119","8.4953163"
"383","CrossFit Shadyside","5440 Centre Avenue, Pittsburgh, PA","(412) 621-5425","http://www.pittsburghkarate.com/Programs/Object/Records/CMSPageObject345206247056000","40.4563849","-79.9366602"
"384","Outer Edge CrossFit","16000 Mill Creek Blvd #112, Mill Creek, WA","(206) 290-8136","http://www.outeredgecrossfit.com/","47.8531156","-122.2211642"
"385","Concord CrossFit","145 Woodrow Ave, Ste C, Modesto, CA","(925) 209-7400","http://concord-crossfit.com/","37.685809","-120.995417"
"386","CrossFit Roots","2406 30th Street, Boulder, CO","(303) 578-8455","http://www.crossfitroots.com","40.0249594","-105.2535723"
"387","CrossFit Amplify","1962 Ohio St, Lisle, IL","(630) 532-4095","http://www.crossfitamplify.com","41.7911607","-88.0898191"
"388","CrossFit 100","4927 N Lydell Avenue, Glendale, WI","(414) 313-1427","http://crossfit100.com/","43.106513","-87.912284"
"389","Reebok CrossFit Katla","Holtagordum, 104 Reykjavik, ","(354) 499-1980","http://","64.1429157","-21.8600061"
"390","Hook & Ladder CrossFit","18814 72nd Ave s, Kent, WA","(206) 498-0785","http://www.hookladdercrossfit.com","47.4340451","-122.2439878"
"392","Karma CrossFit","1053 N Aviation Blvd., Manhattan Beach, CA","(310) 500-8127","http://karmacrossfit.com","33.886248","-118.378617"
"393","Aspen CrossFit","210 AABC, Suite N, Aspen, CO","(970) 948-4605","http://www.aspencrossfit.com","39.218938563686855","-106.85877799987793"
"394","CrossFit Boucherville","684-2 Chemin du Lac, Boucherville, QC","(514) 953-3554","http://www.crossfitboucherville.ca/","45.6125148","-73.4415579"
"395","CrossFit Cambridge","54 Guelph Avenue unit 5-7, Cambridge, ON","(519) 240-6890","http://www.crossfitcambridge.ca","43.4318645","-80.3111108"
"396","CrossFit Stronghold","2176 Chatsworth Blvd., San Diego, CA","(619) 674-4677","http://crossfitstronghold.com/","32.7392745","-117.2281722"
"397","CrossFit Decatur","701 Church Street, Decatur, GA","(404) 370-1763","http://crossfitdecatur.com/","33.7787335","-84.2947096"
"398","CrossFit North Fulton","700 Hembree Pl, Suite E, Roswell, GA","(404) 993-1494","http://www.crossfitnorthfulton.com/","34.0595659","-84.319708"
"399","CrossFit North Atlanta","1730 Taylor Street NW, Atlanta, GA","(404) 355-4500","http://www.crossfitnorthatlanta.com/","33.801633","-84.42109"
"400","CrossFit Results","4400 N 48th St, Ste 7, Lincoln, NE","(913) 775-3287","http://www.crossfitresults.net","40.8573736","-96.6529762"
"401","CrossFit Texas","4674 Priem Lane STE 408, Pflugerville, TX","(512) 251-6402","http://www.crossfittx.com/","30.494816","-97.588275"
"402","CrossFit CHF","1410 Sevierville Rd, Maryville, TN",,"http://xfitchf.wordpress.com/","35.758016","-83.955296"
"403","CrossFit Lethbridge","1916 2nd Ave. S., Lethbridge, AB","(403) 382-1060","http://www.crossfitlethbridge.typepad.com/","49.6974983","-112.8132186"
"404","CrossFit Guelph","340 Edinburgh RD North, Unit C, Guelph, ON","(519) 993-2119","http://www.crossfitguelph.com","43.5503503","-80.2761559"
"407","CrossFit Bismarck","1422 Industrial Drive, Unit B, Bismarck, ND","(701) 223-6979","http://www.crossfitbismarck.com","46.8201539","-100.7311743"
"408","Xplore CrossFit","1223 Western Ave, Seattle, WA","(206) 456-6236","http://www.xplorecrossfit.com","47.60618958930356","-122.33927838734132"
"409","CrossFit Smyrna","1875 Mitchell Road, Mableton, GA","(770) 354-1175","http://www.crossfitsmyrna.com/","33.8162358","-84.4995032"
"411","JSA CrossFit","187 Parker Ave, Rt. 71 Suite M, Manasquan, NJ","(732) 965-2006","http://jsacrossfit.com","40.126226","-74.049304"
"412","Saanich Peninsula CrossFit","12-2075 Henry Avenue, Sidney, BC","(250) 665-7112","http://www.saanichpeninsulacrossfit.net/","48.6530027","-123.4133164"
"413","CrossFit Stowe","75 Weeks Hill Road, Stowe, VT","(802) 238-0903","http://crossfitstowevt.blogspot.com/","44.474556","-72.690102"
"414","CrossFit East Bay","66 Franklin St. Suite 100B, Oakland, CA","(510) 910-2919","http://crossfiteastbay.com","37.7943721","-122.2757206"
"416","CrossFit Birmingham","157 Resource Center Pkwy, Ste. 103, Birmingham, AL","(205) 396-4523","http://CrossFitBirmingham.com","33.42563","-86.70798"
"417","Badlands CrossFit","557 2nd St. SE, Medicine Hat, AB","(403) 979-1789","http://badlandsunderground.blogspot.com/","50.0402631","-110.677052"
"418","CrossFit Valley Park","814 St. Louis Ave., Valley Park, MO","(314) 322-1040","http://www.crossfitvalleypark.com","38.5526018","-90.4776962"
"419","CrossFit Bellingham","122 Ohio Street  #101, Bellingham, WA","(360) 389-3048","http://www.cfbham.com","48.7551188","-122.474099"
"420","CrossFit Great Barrington","115 Gashouse Lane, Great Barrington, MA","(413) 822-3069","http://www.bizfitnation.com","42.1998853","-73.3608495"
"421","Titanfit","7109 Girls School Ave., Indianapolis, IN","(312) 543-4372","http://titanfit.com/","39.74649","-86.2851344"
"422","TBC CrossFit","4553 North Loop 1604 West, San Antonio, TX","(210) 201-0068","http://www.tbccrossfit.com/","29.6090205","-98.5153877"
"423","CrossFit Battle Ready","3257 35th Ave, Evans, CO","(970) 405-7091","http://www.crossfitbattleready.com/","40.384217","-104.735441"
"424","CrossFit R.A.W.","2330 Wildwood Road, Gibsonia, PA","(724) 799-2288","http://www.raw-training.com/","40.5939456","-79.9785541"
"425","CrossFit Knoxville","9355 Kingston Pike, Ste 21, Knoxville, TN","(865) 356-9000","http://www.crossfitknoxville.com/","35.9105519","-84.0928272"
"426","CrossFit Cape Cod","7 North Market Street Mashpee Commons, Mashpee, MA","(508) 332-0058","http://www.crossfitcapecod.com/","41.610807","-70.469832"
"427","Team CrossFit","20942 Victory Blvd., Woodland Hills, CA","(818) 992-7502","http://www.teamcrossfit.com/","34.18818300553073","-118.59010819827267"
"428","Cactus CrossFit","7018 East Indian School Road, Scottsdale, AZ","(480) 463-4172","http://www.cactuscrossfit.com/","33.4949284","-111.9297592"
"429","Gator CrossFit","6020 NW 4th Place Suite G, Gainesville, FL","(352) 359-0889","http://www.gatorcrossfit.com/","29.656585","-82.4078"
"431","CrossFit Rancho Cucamonga","8333 Rochester Avenue #110, Rancho Cucamonga, CA","(909) 260-6780","http://www.crossfitranchocucamonga.com/","34.1018822","-117.5457598"
"432","CrossFit Truckee","11357-C Deerfield Dr., Truckee, CA","(530) 587-3226","http://www.CrossFitTruckee.com","39.318361","-120.208216"
"434","CrossFit B4C","1st Floor, Orion Building, Corner 1st Avenue and Boeing Road East, Edenvale, Gauteng","27829909474","http://www.b4cfitnesscentre.blogspot.com/","-26.1600409","28.1576409"
"435","CrossFit Genesis","215 Kenroy Lane, Roseville, CA","(916) 543-2924","http://www.crossfitgenesis.com/","38.732699","-121.295548"
"436","CrossFit Bath","Unit 8 Wansdyke Business Center, Bath, England","07971604677","http://crossfitbath.com/","51.373809","-2.3771442"
"437","CrossFit Denmark","Store Kongensgade 54, 3rd Floor, Copenhagen, Copenhagen","004561712930","http://www.crossfitdk.dk","55.6853542","12.5881195"
"438","CrossFit Billings","1428 Grand Avenue, Billings, MT","(406) 672-7580","http://crossfitbillings.com/","45.7840773","-108.5524354"
"439","CrossFit Monrovia","143 West Maple Avenue, Monrovia, CA","(714) 390-9556","http://www.crossfitmonrovia.com","34.1415048","-118.0020794"
"440","North Macon CrossFit","4650 Forsyth Road Suite B, Macon, GA","(478) 319-6064","http://northmaconcrossfit.com/","32.873223","-83.709569"
"441","21 CrossFit","1408 Christian Ave, Suite 16, Durham, NC","(919) 351-9348","http://www.21crossfit.com","36.0238003","-78.950243"
"443","CrossFit Sport","Dalsmara 9-11, Kopavogur, n/a","(354) 564-1950","http://www.crossfitsport.is/","64.09169","-21.853769"
"444","CrossFit Hanford","730 Vaughn, Ste. B, Hanford, CA","(559) 587-3090","http://www.crossfithanford.com","36.326853","-119.656636"
"445","CrossFit Skopje","ul. Viktor Igo br.10/20, Skopje, Skopje","38970369802","http://www.crossfitskopje.com/","42","21.4333333"
"447","CrossFit Extreme Fitness","493 South Stone Street Ave, Rockville, MD","(301) 424-0445","http://www.crossfitextremefitness.com","39.0839973","-77.1527578"
"448","CrossFit GPS","74 Millpond Pkwy, Monroe, NY","(845) 913-8048","http://www.crossfitgps.com/","41.3333047","-74.1910058"
"449","Canyon CrossFit","22343 East La Palma Avenue Suite 112, Yorba Linda, CA","(714) 348-6256","http://www.canyoncrossfit.com","33.8824698","-117.7396768"
"450","CrossFit Carson Valley","1291 Industrial Qtr, Suite A, Gardnerville, NV","(775) 781-7718","http://crossfitcarsonvalley.com","38.9412959","-119.7496216"
"451","CrossFit Los Altos","600 Fremont Ave, Los Altos, CA","(650) 947-9831","http://crossfitlosaltos.com/","37.3623636","-122.0997979"
"452","Windy City CrossFit","4043 N. Ravenswood, #106, Chicago, IL","(773) 895-1378","http://www.windycitycrossfit.com/","41.955627","-87.673675"
"453","CrossFit Niagara","25 Commerce Place, Unit 2, St. Catharines, ON","(905) 964-2433","http://www.crossfitniagara.ca","43.1444368","-79.2689208"
"457","Mississippi CrossFit","853 Wilson Drive, Ridgeland, MS","(601) 720-9884","http://www.mscrossfit.com/","32.4057312","-90.1381099"
"458","SPC CrossFit","7311 State, Route 43, Kent, OH","(330) 671-0814","http://www.spccrossfit.com/","41.189614","-81.345586"
"460","CrossFit Bristol","Clifton College Sports Centre Gutherie Rd, Clifton, Bristol","078 1234 6025","http://crossfit-bristol.com/","51.4615492","-2.6218919"
"461","SECT CrossFit","1031 Norwich, New London Turnpike, Unit #25, Uncasville, CT","(860) 639-6484","http://www.sectcrossfit.com","41.453309","-72.105665"
"462","Foundation CrossFit","1415 12th Ave, Seattle, WA","(206) 299-0225","http://www.foundationcrossfit.com/","47.613588","-122.3168413"
"463","CrossFit STHLM (Stockholm)","Drottningholmsvägen 185 Bromma/Alvik, Stockholm, ","08-694 89 00","http://www.nexusstockholm.se/crossfit","59.3335297","17.97295919999999"
"464","Pioneer Valley CrossFit","220 Russell St, Hadley, MA","(646) 593-3090","http://pioneervalleycrossfit.com","42.3457196","-72.5753973"
"465","CrossFit Classic","700 South Buckley Road, Aurora, CO","(303) 880-4641","http://www.crossfitclassic.com/","39.7037199","-104.7901569"
"466","Delta CrossFit","29 Spruce Street, Brentwood, CA","(925) 783-6996","http://deltacrossfit.com","37.937779","-121.695307"
"468","CrossFit Berks","220 Park Rd North Bldg 7, Wyomissing, PA","(877) 498-8620","http://corpsfitness.net/","40.339446","-75.958577"
"469","Crossfit Hove","unit 9, 64-78 Davigdor Rd, Hove, England","01903821020","http://crossfithove.blogspot.com/","50.8312809","-0.1567397"
"470","CrossFit Milpitas","1090 S Milpitas Blvd., Milpitas, CA","(408) 825-3777","http://www.crossfitmilpitas.com/","37.4177128","-121.8886011"
"471","CrossFit Loveland","1410 East 11th Street, Loveland, CO","(970) 203-0759","http://www.crossfitloveland.com/","40.402555","-105.05714"
"472","CrossFit Kinnick","166 S 2nd Ave, Ste C, Upland, CA","(909) 983-4744","http://www.crossfitkinnick.com","34.093328","-117.648508"
"473","CrossFit Reebok Gold Coast","17 Strathaird Road, Bundall, QLD","+61431169496","http://www.crossfitgoldcoast.com.au/","-28.007596","153.401467"
"474","CrossFit Adelaide","4/1 Barrpowell Street, Welland, SA","61404317353","http://www.crossfitadelaide.com/","-34.9101321","138.5608442"
"476","RedShed CrossFit","20 Continental Drive, Mount Olive, NJ","(973) 448-9200","http://www.redshedcrossfit.com/","40.9043909","-74.715265"
"477","CrossFit Kingston","718 Fortune Cresent, Kingston, ON","(613) 453-7486","http://www.crossfitkingston.blogspot.com/","44.2760906","-76.565494"
"479","CrossFit Solano","1052 Horizon Dr, #A, Fairfield, CA","(707) 373-2224","http://www.crossfitsolano.com/","38.273706","-122.015112"
"480","CrossFit Manassas","9411 Center Point Lane, Manassas, VA","(703) 447-4576","http://www.crossfitmanassas.com/","38.7515863","-77.4882827"
"481","CrossFit Winston-Salem","2529 Viceroy Dr, Winston-Salem, NC","(336) 391-0362","http://www.crossfitwinstonsalem.com/","36.044862","-80.324916"
"482","CrossFit Meridian","345 S Adkins Way, Meridian, ID","(208) 861-8148","http://www.CrossfitMeridian.net","43.60158","-116.377848"
"483","CrossFit Austin","8708 South Congress, Suite A180, Austin, TX","(806) 679-7519","http://crossfitaustin.com/","30.171510614099663","-97.7872742355957"
"484","CrossFit NRG","1000 W Beardsley Street Suite B, Salt Lake City, UT","(303) 857-8866","http://nrgcrossfit.com/","40.717645","-111.920081"
"485","CrossFit Northwest Tucson","6800 North Camino Martin, #106, Marana, AZ","(520) 955-2228","http://www.crossfitnwt.com/","32.330652","-111.055965"
"486","CrossFit Orange NY","31 St. John Street, Goshen, NY","(718) 812-1076","http://crossfitorangeny.com/","41.4036193","-74.3239954"
"487","CrossFit Serious Fitness","14 E 14th St, Anniston, AL","(256) 405-8579","http://www.crossfitseriousfitness.com/","33.6623414","-85.8296468"
"488","CrossFit SS (South Side)","7014 AC Skinner Parkway, Suite 220, Jacksonville, FL","(904) 296-4552","http://www.crossfitss.com/","30.246602","-81.580782"
"489","CrossFit Littleton","4731 S Santa Fe Circle #1, Englewood, CO","(720) 201-6054","http://crossfitlittleton.net/","39.6300687","-105.0100944"
"491","Boise CrossFit","9165 W Chinden Blvd, Suite 100, Boise, ID","(208) 863-4741","http://boisecrossfit.com/","43.654732","-116.296128"
"492","CrossFit NWA","500 S Main Street, Bentonville, AR","(479) 715-6053","http://www.crossfitnwa.com/","36.3728538","-94.2088172"
"493","Dalton's CrossFit","1160 Dewey Way, Suite E, Upland, CA","(909) 982-9300","http://www.daltonscrossfit.net/","34.1083411","-117.6939133"
"494","CrossFit Christchurch","132 Vagues Road, Papanui, Christchurch","64 508 276 773","http://crossfitchristchurch.com/","-43.4851341","172.6084935"
"495","CrossFit Works","244 S. Tucson Blvd, Tucson, AZ","(520) 344-7358","http://www.crossfitworks.com/","32.2196527","-110.9351556"
"496","Hammer CrossFit","8615 W. Kelton Lane, Suite 301, Peoria, AZ","(623) 215-5412","http://hammercrossfit.com/","33.6352289","-112.2424724"
"497","CrossFit Big Island","1717 Kamehameha Ave, Hilo, HI","(808) 990-3863","http://www.Crossfitbigisland.com","19.722802","-155.06485"
"499","CrossFit Ayr","2 Cambuslea Road, Ayr, South Ayrshire","07889823211","http://www.crossfitdental.com/","55.47521","-4.6158223"
"500","CrossFit Clinton","1205 Clinton Industrial Park Road, Clinton, MS","(601) 717-2519","http://www.hitechgym.com/crossfitclinton/","32.3569436","-90.3441794"
"501","CrossFit Memphis","7740A Trinity Road, Suite 109, Cordova, TN","(901) 246-9451","http://CFMemphis.com","35.141277","-89.804532"
"502","CrossFit Sky Box","100 Napa Junction Road, American Canyon, CA","(707) 554-1091","http://www.crossfitskybox.com","38.186765","-122.265251"
"503","Body Armor CrossFit","2411 Broadway, Ste B, San Antonio, TX","(210) 826-7070","http://www.bodyarmorsa.com/","29.448867","-98.475197"
"504","Roaring Fork CrossFit","402 Park Avenue Suite B, Basalt, CO","(970) 379-6309","http://roaringforkcrossfit.com/","39.3737033","-107.0785756"
"505","CrossFit New England","15 Tech Circle, Natick, MA","(781) 413-5133","http://www.crossfitnewengland.com","42.3148058","-71.3347542"
"506","CrossFit Koncepts","16720-16722 Oakmont Ave, Gaithersburg, MD","(301) 404-2571","http://crossfitkoncepts.typepad.com/","39.1308228","-77.1748473"
"507","CrossFit South Australia","74 Mary St., Unley, SA","(618) 351-9762","http://www.inhealthservices.com.au/index.htm","-34.9484986","138.6018885"
"508","Carolina CrossFit","1825 Laurel St, Columbia, SC","(803) 479-6966","http://www.carolinacrossfit.com","34.0131159","-81.026475"
"510","CrossFit Jax","2593 Mayport Rd #105, Atlantic Beach, FL","(904) 853-6843","http://www.crossfitjax.com/","30.358802","-81.412425"
"511","CrossFit Athletes Arena","1019 Broad Stone Rd, Irmo, SC","(803) 750-9036","http://crossfit.athletesarena.com/","34.1414741","-81.2375883"
"512","Flatirons CrossFit","3640 Walnut St, Boulder, CO","(303) 517-7114","http://www.flatironscrossfit.com/","40.018804","-105.247039"
"513","Ground Zero CrossFit (GZ)","2601 Venture Drive, Suite 120, Norman, OK","(405) 701-8400","http://gzcrossfit.com/","35.269834","-97.480617"
"514","Motor City CrossFit","8200 Irving Rd, Sterling Heights, MI","(586) 944-4925","http://www.motorcitycrossfit.com","42.54529","-83.027088"
"515","CrossFit Dahlonega","162 Lumpkin County Parkway Suite 10, Dahlonega, GA","(706) 864-4075","http://crossfitdahlonega.com","34.444712","-83.9881597"
"516","CrossFit Camas","19005 SE 34th Street, #106, Vancouver, WA","(360) 833-0964","http://www.crossfitcamas.com","45.5966305","-122.4802576"
"517","Natural High CrossFit","Southridge Village RPO 40027, Okotoks, AB","(403) 995-3602","http://www.naturalhighcrossfit.ca/","50.7180574","-113.9837065"
"518","Agoge CrossFit Woodinville","19400 144th Ave NE, Unit A, Woodinville, WA","(206) 949-2265","http://www.agogegym.com/","47.7683727","-122.147728"
"519","CrossFit Pottstown","371 Circle of Progess, Pottstown, PA","(484) 302-6188","http://www.pottstownkarate.com","40.267258","-75.664107"
"520","CrossFit Schaffhausen","Ebnatstrasse 65, Schaffhausen, Schaffhausen","(079) 279-8197","http://crossfitschaffhausen.ch/","47.7074656","8.6440084"
"522","CrossFit Broad Ripple","6542 Westfield Blvd, Suite 2, Indianapolis, IN","(317) 898-4281","http://Forgedfit.com","39.8748524","-86.1412424"
"523","CrossFit Rehoboth","37395 Oyster House Rd, Rehoboth Beach, DE","(302) 227-3636","http://crossfitrehoboth.com/","38.7080781","-75.0926342"
"524","CrossFit Salem","3589 Fairview Industrial Dr. S, Salem, OR","(503) 931-7727","http://www.crossfitsalem.net/","44.9029091","-123.0161986"
"526","Legend CrossFit","115 Commerce St, Suite A, McCall, ID","(208) 630-3870","http://www.legendcrossfit.com/","44.895606","-116.092713"
"527","CrossFit Blacksburg","112 Country Club Drive SW, Blacksburg, VA","(540) 320-0756","http://crossfitblacksburg.com/","37.2177999","-80.4029"
"529","CrossFit Hillsboro","2074 NW Aloclek Dr. S. 411, Hillsboro, OR","(503) 747-7317","http://www.pacpersonaltraining.com/subs/services_crossfit.html","45.5344775","-122.896378"
"532","CrossFit Empower","3321 Dunbar Street, Vancouver, BC","(604) 446-4745","http://www.crossfitempower.com/","49.2571016","-123.1853306"
"533","CrossFit Sweat Shop","1401 Autocenter Drive, Suite A, Walnut Creek, CA","(925) 818-1908","http://www.crossfitsweatshop.com/","37.922684","-122.0620525"
"535","CrossFit Downtown Winston","480 West End Blvd, Winston-Salem, NC","(336) 310-5018","http://www.crossfitdowntownwinston.com/","36.101155","-80.260637"
"536","Upstate CrossFit","341 -A Miller Rd., Mauldin, SC","(864) 449-8945","http://www.upstatecrossfit.net","34.7920609","-82.303861"
"538","CrossFit Amarillo","6900 Canyon Dr, Suite 220, Amarillo, TX","(806) 367-7282","http://www.crossfitama.com/","35.1349665","-101.8971934"
"539","CrossFit CapOp","2242A, Rue Lariviere, Montreal, QC","(514) 596-1010","http://www.crossfitcapop.com/","45.5300877","-73.5572525"
"540","CrossFit Box","The CrossFit Box 10909 Prospect Rd, Strongsville, OH","(440) 371-1261","http://www.thecrossfitbox.com/","41.3317132","-81.8576572"
"541","CrossFit of Naperville","800 Frontenac Road, Aurora, IL","(630) 452-5148","http://crossfitnaperville.com/","41.742651","-88.229667"
"542","CrossFit Wellington","11596 Pierson Road, Wellington, FL","(561) 290-1639","http://www.crossfitwellington.com/","26.6365876","-80.2296498"
"543","CrossFit Trussville","139 Railroad Street, Trussville, AL","(205) 317-9526","http://www.crossfittrussville.com/","33.6190696","-86.6055847"
"544","CrossFit Laval","1952 rue Le Chatelier, Laval, QC","(450) 687-7348","http://www.crossfitlaval.ca","45.5888149","-73.7560904"
"546","CrossFit Everett","1302 Hewitt Ave, Unit E102, Everett, WA","(425) 328-6941","http://crossfiteverett.com/","47.9792225","-122.2126558"
"547","Reebok CrossFit Velocity","Unit 4 Celtic Trade Park, Bruce Road, Fforestfach, Swansea, Wales","447525018728","http://www.crossfitvelocity.co.uk/","51.6446661","-3.9975368"
"548","CrossFit  Ancaster","1412  Sandhill Drive, Ancaster, ON","(905) 648-6555","http://crossfitancaster.com","43.1904582","-80.0313985"
"549","SinCity CrossFit","930 Wigwam Parkway, Henderson, NV","(702) 218-9864","http://sincitycrossfit.com","36.0349602","-115.0252615"
"550","CrossFit Tallahassee","504 Capital Circle SE, #8, Tallahassee, FL","(850) 566-3269","http://www.crossfittallahassee.com/","30.438213","-84.228615"
"551","CrossFit Unreal","32 Stubbs Street, Kensington, VIC","6130438047174","http://www.crossfitunreal.com","-37.7900006","144.9355728"
"552","CrossFit The Den","943 Automation Way, Suite B, Medford, OR","(541) 292-2792","http://www.crossfittheden.com/","42.362293","-122.878417"
"553","Ultimate CrossFit","210 Rampart St Suite F, Charlotte, NC","(704) 331-4815","http://www.ultimatecrossfit.com/","35.2088455","-80.8638599"
"554","Desert CrossFit","73-605 Dinah Shore Dr, Ste 1400N, Palm Desert, CA","(760) 533-0642","http://www.desertcrossfit.typepad.com/","33.7996392","-116.3819564"
"557","Full Force CrossFit","26330 Diamond Place, Suite 150, Santa Clarita, CA","(661) 799-7800","http://www.fullforcecrossfit.com/","34.4092797","-118.5074186"
"558","CrossFit Suffolk","5006 Veteran's Highway, Holbrook, NY","(631) 747-6038","http://www.spartanperformance.com","40.7766351","-73.0715639"
"559","CrossFit Coastal","5726 Market St., Wilmington, NC","(910) 632-4985","http://www.crossfitcoastal.com","34.24928","-77.8602065"
"560","CrossFit Hattiesburg","28 Commercial Warehouse Dr, Ste 3, Hattiesburg, MS","(601) 310-8821","http://crossfit-hattiesburg.com/","31.1943721","-89.2062985"
"561","CrossFit Utah Valley","376 Commerce Loop, Orem, UT","(801) 900-3480","http://www.crossfituv.com","40.290704","-111.7272523"
"562","CrossFit Copenhagen","Tagensvej 168 2. Th., Copenhagen N, Copenhagen","004561304585","http://www.crossfitcopenhagen.dk/","55.7089412","12.5391417"
"563","Next Generation CrossFit","7709 E 42nd Place Unit 116, Tulsa, OK","(918) 850-5069","http://www.nextgenerationcrossfit.com","36.102789","-95.8898449"
"564","CrossFit London ON","353 Bathhurst St, London, ON","(519) 518-3369","http://www.crossfitlondon.ca","42.9820609","-81.2404877"
"565","CrossFit East County","1810 John Towers Ave., Suite B, El Cajon, CA","(619) 709-1276","http://www.crossfiteastcounty.com","32.8204325","-116.979642"
"566","CrossFit Troy","300 Peters Ave., Troy, OH","(937) 216-7387","http://www.crossfittroy.com/","40.030022","-84.212396"
"567","CrossFit Miami","5983 NW 102nd Avenue, Doral, FL","(305) 418-8855","http://www.rippedfitnesscenter.com","25.8277771","-80.3619967"
"568","Cynergy CrossFit","23 Commercial Waye, Hanson, MA","(617) 962-0257","http://www.cynergycrossfit.com/","42.0512918","-70.9044274"
"569","CrossFit Geneseo","3339 Cuylerville Rd., Geneseo, NY","(585) 233-4717","http://www.crossfitgeneseo.com","42.7772697","-77.8351563"
"570","CrossFit Jackson","101 Executive Dr., Jackson, TN","(731) 215-0130","http://www.crossfitjackson.com/","35.6706053","-88.8249509"
"571","CrossFit Fort Bragg","425 W. Manchester, Spring Lake, NC","(919) 622-5370","http://crossfit-fortbragg.com/","35.1901116","-78.9971703"
"572","CrossFit Lorton","7402 A Lockport Place, Lorton, VA","(571) 332-1995","http://www.crossfitlorton.com","38.7162452","-77.1969159"
"573","CrossFit Snohomish","16326 SR 9 SE, Snohomish, WA","(425) 337-2904","http://www.crossfitsnohomish.com","47.848639","-122.118133"
"574","CrossFit Silicon Valley (SV)","1345 The Alameda, San Jose, CA","(408) 275-0440","http://www.crossfitsv.com","37.33233","-121.913564"
"575","CrossFit A.P.E. (Ape)","2811 Broadmore Street, Klamath Falls, OR","(541) 885-7894","http://www.crossfitape.com","42.202346","-121.753607"
"576","CrossFit Simi Valley","1816 Angus Ave., Simi Valley, CA","(805) 432-5224","http://www.crossfitsimi.com","34.270824","-118.701855"
"577","The Cell CrossFit","2/441 Yangebup Road, Cockburn Central, WA","(61)(08)94662542","http://thecellfitness.com.au/","-32.121617","115.839594"
"578","MaD CrossFit","58 Victoria Street, Petone, Lower Hutt","(021) 266-4264","http://www.madcrossfit.com","-41.2226249","174.8752893"
"579","CrossFit Lions","1212 Welch Street, North Vancouver, BC","(604) 839-0296","http://www.crossfitlions.com","49.3177487","-123.1083834"
"580","CrossFit NorWest","336-338 Old Northern Road, Castle Hill, NSW","(041) 301-1677","http://www.crossfitnorwest.com/","-33.730211","151.016638"
"581","CrossFit Avalanche","7011 National Avenue, Unit 4, Tahoe Vista, CA","(530) 546-7703","http://crossfitavalanche.com/","39.2470298","-120.0486259"
"582","Natural Strength CrossFit","961 Laval Cres. - Unit D, Kamloops, BC","(250) 318-0672","http://www.naturalstrengthfitness.com/","50.6604066","-120.3656847"
"583","Gunx CrossFit","19 Osprey Lane, Gardiner, NY","(845) 419-2177","http://www.gardinerathletics.com/what-is-crossfit/","41.691289","-74.146825"
"584","HeadHunters CrossFit","3740 Resource Dr. Ste C, Tuscaloosa, AL","(334) 507-2326","http://www.headhunterscrossfit.com/","33.17478","-87.556606"
"588","CrossFit X-Factor","2202 NW Roosevelt Street, Portland, OR","(503) 830-9700","http://www.crossfitxfactor.com","45.5382281","-122.6970459"
"590","CrossFit San Elijo","3146 Tiger Run Court Suite 120, Carlsbad, CA","(760) 805-7562","http://www.crossfitsanelijo.com/","33.1311168","-117.2406011"
"591","I AM CrossFit","1401 NW 88th Avenue, Doral, FL","(786) 999-5497","http://www.iamcrossfit.com","25.7863543","-80.338887"
"592","CrossFit North Fort Collins","1831 East Mulberry, Fort Collins, CO","(970) 420-5566","http://www.crossfitnorthfortcollins.com/","40.5807999","-105.0436827"
"593","Central Bucks CrossFit","1800  Mearns Rd, Unit JJ, Warminster, PA","(215) 262-9789","http://www.centralbuckscrossfit.com/","40.2067884","-75.099807"
"594","CrossFit High Voltage","219 West Palm, Burbank, CA","(818) 848-8804","http://www.crossfithighvoltage.com/","34.1766099","-118.317099"
"595","Core CrossFit","825 N 7th Street, Phoenix, AZ","(707) 338-3449","http://www.corecrossfit.com/","33.457334","-112.064827"
"596","CrossFit Los Gatos","1000 Jacklin Road, Milpitas, CA","(408) 605-4840","http://crossfitlosgatos.com","37.4461414","-121.892424"
"599","CrossFit Steel Place","4575 Steel Place, Cincinnati, OH","(513) 910-5050","http://www.cincinnatistrength.com/","39.15856","-84.4157819"
"600","CrossFit Invictus","1446 Columbia Street, San Diego, CA","(619) 231-3000","http://www.crossfitinvictus.com","32.7204421","-117.1675182"
"601","CrossFit Sioux Falls","3505 S Phillips Ave, Sioux Falls, SD","(605) 274-3474","http://www.crossfitsiouxfalls.com/","43.5134974","-96.7262248"
"602","Wine Country CrossFit","818 Jackson St., Unit E, Napa, CA","(707) 337-9441","http://www.wccrossfit.com/","38.307758","-122.2882886"
"604","CrossFit Outer Banks","906 Croatan Highway, Kill Devil Hills, NC","(252) 202-1878","http://crossfitouterbanks.com/blog.htm","36.006687","-75.65746"
"605","CrossFit Brea","4080 N. Palm St, Suite 802, Fullerton, CA","(714) 738-1717","http://crossfitbrea.com/","33.9213028","-117.9243328"
"606","CrossFit West Chester","917 Old Fern Hill Road, West Chester, PA","(610) 864-8522","http://www.crossfitwc.com/","39.980029","-75.589538"
"607","CrossFit Malaysia","B-GF-23&23A, Block B, Merchant Square, No. 1 Jln Tropicana Selatan 1, PJU 3, Petaling Jaya, Selangor","6012-3900684","http://www.pushmore.com.my/","3.133622443819834","101.59871399402618"
"608","CrossFit Strength","1319 Central Ave, Charlotte, NC","(704) 771-6679","http://crossfit-strength.com/","35.2208785","-80.8163572"
"609","Heroes CrossFit","13010 Parmer Lane, Suite 500, Cedar Park, TX","(512) 410-4376","http://www.heroescrossfit.com/","30.533911","-97.780584"
"610","CrossFit Springfield","1900 W Sunset, BLDG B Suite 100, Springfield, MO","(417) 881-7855","http://www.crossfit-springfield.com","37.165428","-93.3179229"
"611","CrossFit Frederick","5119 Pegasus Court Suite B, Frederick, MD","(240) 651-5981","http://www.CrossFitFrederick.com","39.371166","-77.4083372"
"612","CrossFit Santa Cruz Central","2650 Research Park Drive, Soquel, CA","(831) 331-9174","http://www.crossfitsantacruzcentral.com","36.9835868","-121.9682698"
"613","CrossFit Off the Grid","1165 N Truckahoe Rd, Williamstown, NJ","(609) 501-2383","http://www.crossfitoffthegrid.com","39.69448","-75.021949"
"614","CrossFit 801","625 West 3900 South Ste D2, Salt Lake City, UT","(801) 566-3048","http://www.crossfit801.com","40.6870061","-111.9090795"
"615","CrossFit Augusta","4408 EVANS TO LOCK ROAD, EVANS, GA","(706) 855-1981","http://www.quantumacademyevans.com/Crossfit-Augusta.html","33.5337464","-82.1306747"
"616","CrossFit Coeur D'Alene","301 N 4th Street, Coeur D'Alene, ID","(509) 998-3185","http://www.crossfitcda.com/","47.675319","-116.78135"
"617","CrossFit Okanagan","1033 Richter Street, Kelowna, BC","(250) 807-2269","http://crossfitokanagan.com/","49.8966971","-119.4884486"
"618","CrossFit Resolute","1930 Airport Industrial Park Drive, Suite F, Marietta, GA","(678) 984-4142","http://www.crossfitresolute.com/","33.906265","-84.495987"
"619","CrossFit Montclair","19 Elm Street, Montclair, NJ","(973) 337-6538","http://www.guerrillafitness.net/","40.80923","-74.213267"
"620","Capital CrossFit 2","23520 Overland Drive, Dulles, VA","(703) 346-8828","http://www.gracieva.com/crossfit.php","38.9623933","-77.4969766"
"622","Brandt CrossFit","300 Burnett St., Basement,, Fort Worth, TX","(817) 291-0675","http://www.brandtcrossfit.com/blog/","32.753282","-97.336364"
"623","CrossFit Taranis","3-933 Ellery Street, Victoria, BC","(250) 590-8348","http://www.crossfitvic.com","48.4372932","-123.4009378"
"625","CrossFit Santa Cruz","2521 Mission St, Suite C, Santa Cruz, CA","(831) 239-7003","http://www.crossfitsantacruz.com/","36.96007899717775","-122.05013518587913"
"626","CrossFit Scotland","Unit 16 Mackintosh Place South newmoor, Irvine, Ayrshire","07771648001","http://www.basixgym.com/pink_basix/flashintro.htm","55.6082358","-4.6421429"
"627","CrossFit Tri-Cities","761 N 17th Street, Suite 29, St. Charles, IL","(630) 492-0029","http://www.tricitiescrossfit.com/","41.9196396","-88.3352585"
"628","CrossFit Revolution","202 S. Moon Ave., Brandon, FL","(813) 716-6717","http://www.crossfitrevolution.typepad.com/","27.9353427","-82.2886188"
"629","CrossFit Saskatoon","#4-420 Lauriston Street, Saskatoon, SK","(306) 979-9348","http://www.synergystrength.ca/","52.142997","-106.655332"
"630","MBS CrossFit","10900 W 120th Ave, Broomfield, CO","(720) 434-6282","http://www.mbscrossfit.com","39.9141107","-105.1179029"
"631","CrossFit Redding","5211 Churn Creek, Redding, CA","(530) 244-1348","http://www.crossfitredding.com","40.5371474","-122.3477626"
"633","CrossFit Playground","181 Upton Road, Suite D, Colchester, CT","(860) 680-5583","http://www.crossfitplayground.com/","41.578186","-72.350371"
"634","CrossFit Asheville","438 Haywood Road, Asheville, NC","(828) 545-0236","http://www.crossfitasheville.com/","35.577212","-82.581298"
"635","CrossFit 305","5940 NE 4th Ave., Miami, FL","(305) 809-6390","http://crossfit305.com","25.8306131","-80.1881753"
"636","RedPoint CrossFit","5213 Raeford Rd #103, Fayetteville, NC","(910) 868-7625","http://www.climbredpoint.com","35.040942","-78.96639"
"637","The Workout CrossFit","2415 SE 165th Ave, Suite 105, Vancouver,, WA","(360) 253-4767","http://www.theworkoutcf.com/","45.602969","-122.502205"
"638","CrossFit Castle Rock","4760 Castleton Way, Castle Rock, CO","(720) 810-7191","http://www.crossfitcastlerock.com/","39.409061","-104.8664919"
"640","CrossFit Murfreesboro","831 Park Avenue, Suite A, Murfreesboro, TN","(615) 904-5683","http://www.CrossFitMurfreesboro.com","35.8379022","-86.3972091"
"643","CrossFit West Houston","8716 Longpoint Rd Suite 212, Houston, TX","(832) 900-9637","http://www.crossfitwesthouston.com/","29.8032064","-95.5034522"
"644","CrossFit St George","1449 North 1400 West, Unit 6, St George, UT","(435) 275-2214","http://www.crossfitstgeorge.com/","37.133579913083416","-113.61400654211423"
"645","CrossFit Renegade","Unit 6 6468 King George Blvd, Surrey, BC","(604) 765-7457","http://www.crossfitrenegade.com/home.html","49.120449","-122.844733"
"647","CrossFit Del Sol","11190 Circle Drive, Suite 103, Austin, TX","(512) 565-5179","http://www.martialarts-austin.com/crossfit.html","30.2237615","-97.9531939"
"648","CrossFit CenterMass","333 Shrewsbury St, Worcester, MA","(508) 335-9902","http://www.crossfitcentermass.com","42.2692582","-71.7786841"
"649","CrossFit Riverside","7899 Mission Grove Parkway South, Riverside, CA","(951) 616-8106","http://www.crossfitriverside.com","33.909474","-117.328452"
"650","Brethren CrossFit","675 Jarvis Drive, Morgan Hill, CA","(408) 390-3890","http://www.brethrencrossfit.com/","37.149959","-121.651195"
"651","CrossFit Waco","418 S 8th Street, Waco, TX","(254) 755-0228","http://www.CrossFitWaco.com","31.5518257","-97.1313036"
"652","CrossFit Bogota","Cra 13 #86A-51, Bogota, ","+57 (1) 7036322","http://www.crossfitbogota.com/","4.671089002152048","-74.0526618870552"
"653","CrossFit Proper","420 East Princeland Court, Suite 4, Corona, CA","(951) 316-3323","http://www.crossfitproper.com/","33.8850159","-117.5612765"
"654","CrossFit Strong","4755 McEwen Road, Dallas, TX","(214) 575-9581","http://www.crossfitstrong.com","32.928883","-96.8273935"
"655","CrossFit Rebellion","3029 6th Ave S, Birmingham, AL","(205) 422-0721","http://www.crossfitrebellion.com/","33.513803","-86.785487"
"657","CrossFit The Club","1221 E. 5800 S., Ogden, UT","(801) 388-0587","http://crossfittheclub.com/","41.15695","-111.950132"
"658","CrossFit 27:17","513 Liberty Road, Suite 2A, Flowood, MS","(601) 540-6917","http://www.crossfit2717.com/","32.341091","-90.078841"
"659","King County CrossFit","2230 Lind Avenue SW Suite C100, Renton, WA","(206) 499-4499","http://www.kingcrossfit.com/","47.4606689","-122.2234037"
"660","CrossFit New Hampshire","540 N. Commercial St, Manchester, NH","(603) 759-6335","http://www.crossfitnewhampshire.com/","42.996236","-71.467695"
"662","Sport of Fitness CrossFit","537-A Clemson Road, Columbia, SC","(540) 429-5841","http://www.sportoffitness.com/","34.1134114","-80.8502212"
"663","CrossFit Center City","1229 Chestnut Street Basement, Philadelphia, PA","(267) 909-8210","http://www.crossfitcc.blogspot.com","39.9506586","-75.1614269"
"664","CrossFit Jaguar","9509 N. Trask Street, Tampa, FL","(813) 908-6464","http://www.jaguarfit.com","28.0376897","-82.5211136"
"665","East Coast CrossFit","1650 US Hwy 1, Southern Pines, NC","(910) 315-6552","http://www.eastcoastcrossfit.com","35.1592479","-79.4121422"
"666","CrossFit Apex","655 Forman Rd., Souderton, PA","(215) 723-2790","http://www.crossfitapex.com/","40.2911894","-75.3466359"
"667","CrossFit Triumph","39976 US Highway 19, Tarpon Springs, FL","(727) 255-2722","http://www.crossfittriumph.net/","28.1339204","-82.7402897"
"668","CrossFit Jupiter","713 Commerce Way #41, Jupiter, FL","(561) 346-9011","http://www.crossfitjupiter.com/","26.926662","-80.120609"
"669","CrossFit Dallas Central","5626 Fondren, Dallas, TX","(979) 220-3089","http://www.dallascrossfit.com","32.8445851","-96.7708086"
"670","CrossFit Tribe","7800 Airport Highway, Pennsauken, NJ","(856) 220-0244","http://crossfittribe.com/","39.930762","-75.076873"
"671","Reebok CrossFit Reading","Hodsall Road, Reading, Berkshire","0044 0751 369 004","http://www.reebokcrossfitreading.co.uk/","51.4591088","-0.9830435"
"672","CrossFit Pleasanton","7074 Commerce Circle, #A, Pleasanton, CA","(925) 353-4894","http://www.crossfitpleasanton.com/","37.6981847","-121.9179265"
"673","CrossFit 951","29723 New Hub Dr, Suite G, Menifee, CA","(805) 215-9444","http://www.crossfit951.com/","33.6886343","-117.1768246"
"674","CrossFit Alaska","9191 Old Seward Highway Suite 10&11, Anchorage, AK","(907) 277-2348","http://www.revolutionsportstraining.com/CrossFit.htm","61.137947","-149.862491"
"675","CrossFit Run Jump Lift","372 Lackawanna Pl., South Orange, NJ","(973) 452-6850","http://www.runjumplift.com/","40.740275","-74.264891"
"677","Northwest CrossFit Bellevue","13203 NE 16th Street, Bellevue, WA","(206) 234-8347","http://www.nwcrossfitbellevue.com/","47.6243762","-122.1633095"
"678","Reebok CrossFit Northern Ireland","Unit 12, Linfield Industrial Estate Linfield Road, Belfast, Northern Ireland","02890 233387","http://theunitbelfast.com","54.5935924","-5.9381008"
"679","CrossFit Fire","500 Wegner Rd., Unit E, Lakemoor, IL","(815) 207-8844","http://www.crossfitfire.com","42.3213505","-88.2047565"
"680","CrossFit Stillwater","1615 N Country Club Rd, Suite D, Stillwater, OK","(405) 533-4033","http://www.crossfitstillwater.blogspot.com/","36.138032","-97.122664"
"681","Hudson Valley CrossFit","186 White Schoolhouse Road, Rhinebeck, NY","(845) 876-6760","http://www.hudsonvalleycrossfit.com/","41.93293","-73.856181"
"683","CrossFit San Rafael","2240 4th St, San Rafael, CA","(415) 456-1610","http://www.tjsgym.com","37.976724","-122.550876"
"684","CrossFit by Overload","2500 Paul Minnie Ave., Santa Cruz, CA","(951) 660-0041","http://www.crossfitbyoverload.com/","36.9847817","-121.9841123"
"685","CrossFit North Vancouver","2455 Dollarton Highway Unit 116, North Vancouver, BC","(604) 341-0836","http://crossfitnorthvancouver.com/","49.3064658","-123.0086086"
"686","CrossFit West Vancouver","1431 Clyde Ave, West Vancouver, BC","(604) 683-2446","http://www.crossfitbc.com","49.328772678819234","-123.15510752309706"
"688","CrossFit Canton","857 Hickory Flats Hwy Ste A, Canton, GA","(770) 633-4111","http://www.crossfitcanton.com","34.2240895","-84.4808829"
"689","PFC CrossFit","8840 W Russell Rd, Suite 230, Las Vegas, NV","(702) 647-1126","http://pfccrossfit.com/","36.085519","-115.284432"
"691","We Are CrossFit","1400 Simms Blvd, Lakewood, CO","(303) 231-9992","http://www.flexgymcrossfit.com/#!members/citr","39.738862","-105.127868"
"694","CrossFit South City","3283 Ivanho, St.Louis, MO","(314) 322-2330","http://www.crossfitsouthcity.com/","38.603589","-90.304328"
"695","CrossFit Lehigh Valley","934 Marcon Blvd, Allentown, PA","(610) 349-6981","http://www.crossfitlehighvalley.com/crossfit-lehigh-valley-swim-program","40.640188","-75.443871"
"696","CrossFit Belltown","3025 1st Ave, Seattle, WA","(206) 420-6314","http://www.crossfitbelltown.com/","47.618182","-122.354861"
"697","Centerville CrossFit","923 Senate Dr., Centerville, OH","(937) 216-6756","http://www.centervillecrossfit.com/","39.635163","-84.1834771"
"698","CrossFit 915 West","6250 Modesta Rd, Suite B, El Paso, TX","(915) 276-0110","http://","31.881104","-106.593224"
"699","CrossFit Brevard","234 South Broad Street, Unit A, Brevard, NC","(828) 553-7860","http://www.crossfitbrevard.com/","35.2314964","-82.7357523"
"700","CrossFit Gotham","605 N Macquesten Pkwy, Mt. Vernon, NY","(917) 575-6336","http://www.crossfitgotham.com","40.92354","-73.8417314"
"701","CrossFit Vero Beach","760 8th Court, Suite 4, Vero Beach, FL","(772) 584-3745","http://www.crossfitverobeach.com/","27.613905","-80.388239"
"702","Bulldog CrossFit","1520 Hannah Ave, Forest Park, IL","(866) 966-3966","http://www.bulldogbootcamp.com/crossfit_info/","41.8584732","-87.8087882"
"703","CrossFit LifeSport","3128 Douglas, Toledo, OH","(419) 450-9056","http://www.crossfitlifesport.com","41.6787902","-83.6049018"
"704","CrossFit Combat Fitness","5057 N Cedar Ave, Fresno, CA","(559) 708-0977","http://www.crossfitcombatfitness.com/","36.8093648","-119.7542588"
"705","CrossFit Midland","5204 N Lamesa Rd, Midland, TX","(432) 312-8769","http://www.crossfitmidland.com","32.0537012","-102.0822541"
"706","CrossFit Ignite","33 South Maple Ave, Unit C, Park Ridge, NJ","(973) 879-1210","http://crossfitignite.com/","41.030835","-74.038262"
"708","IMT CrossFit","12309 sw 131 ave, Miami, FL","(305) 878-5601","http://imtcrossfit.net/","25.653466","-80.405889"
"709","Blue Ridge CrossFit","21 Design Avenue Suite B, Fletcher, NC","(828) 329-9056","http://www.blueridgecrossfit.com","35.447032","-82.5239"
"710","Naturally CrossFit","3007 Longhorn Blvd, Suite 101, Austin, TX","(512) 507-1418","http://www.inertiacrossfit.com/","30.38147","-97.729042"
"711","CrossFit Mass","1630 Osgood Street, North Andover, MA","(978) 494-0606","http://www.crossfitmass.com/","42.7320831","-71.1132879"
"712","CrossFit Corvallis","350 SW Wakerobin #8, Corvallis, OR","(541) 760-7389","http://venividivicifitness.squarespace.com/","44.5376094","-123.2693052"
"713","CrossFit Imperial Valley","505 Industry Way, Imperial, CA","(760) 355-1900","http://crossfitimperialvalley.com/","32.8284269","-115.5795075"
"714","CrossFit Bloomington","300 West Hillside Drive, Bloomington, IN","(812) 345-8373","http://crossfitbloomington.com/","39.150578","-86.5365091"
"715","CrossFit Versus","7 Conover Place, Little Silver, NJ","(732) 212-0232","http://www.adrenalinenj.com/crossfit.cfm","40.3261969","-74.038775"
"716","CrossFit FTF","349 N. Minnewawa Ave, Clovis, CA","(916) 470-3782","http://www.crossfitftf.com","36.8366205","-119.7084352"
"717","Alternative Athletics CrossFit","808 4th Ave N, Billings, MT","(619) 540-6022","http://alternativeathletics.com","45.7953351","-108.4861772"
"718","CrossFit Colosseum","222 Islington Ave Unit 4, Etobicoke, ON","(416) 948-7204","http://www.crossfitcolosseum.com","43.6054035","-79.5072387"
"719","CrossFit 509","9107 N Country Homes Blvd, Suites 8-9, Spokane, WA","(509) 879-6985","http://www.crossfit509.com/","47.741118","-117.413775"
"720","CrossFit Yaletown","1240 Richards Street, Vancouver, BC","(604) 683-2446","http://www.crossfitbc.com","49.2753176","-123.1248461"
"721","CrossFit BC","1240 Richards Street, Vancouver, BC","(604) 683-2446","http://www.crossfitbc.com","49.2753176","-123.1248461"
"722","Valhalla CrossFit",", Gardez, Paktia","(253) 203-6901","http://valhallacrossfit.blogspot.com/","33.59811","69.224297"
"723","CrossFit Twin Cities","5610 International Parkway, New Hope, MN","(763) 559-7091","http://www.crossfittc.com/","45.0548539","-93.3968684"
"724","CrossFit Hawaii","883 Mission Lane, Honolulu, HI","(808) 256-5665","http://www.hardassfitness.blogspot.com/","21.303135","-157.8573879"
"725","Fitness Battalion CrossFit","1242 Booth Street, Atlanta, GA","(404) 607-7424","http://www.fitnessbattalion.com","33.7886926","-84.417708"
"726","CrossFit CFT","334 Hermitage Ave., Nashville, TN","(615) 469-2381","http://www.crossfitcft.com/","36.153872","-86.748397"
"727","CrossFit Middle Tennessee (MT)","106 Carr Ave, Franklin, TN","(615) 429-2208","http://www.crossfitmt.com","35.905399","-86.873424"
"729","CrossFit Fort Myers","12451 Metro Pkwy, Suite 108, Fort Myers, FL","(239) 223-4255","http://www.crossfitfortmyers.com","26.5623313","-81.8529049"
"730","CrossFit Excel","1433 Moffat Blvd, Ste. 1, Manteca, CA","(209) 249-9929","http://crossfitexcel.com/WOD/","37.7876201","-121.2028716"
"732","Lowcountry CrossFit","1391 Stuart Engals Road, Mt. Pleasant, SC","(843) 607-1179","http://lowcountrycrossfit.com","32.809652","-79.849486"
"733","CrossFit Connection","755 Griffith Court, Burlington, ON","(905) 633-8486","http://www.crossfitconnection.com","43.3672473","-79.7727714"
"735","CrossFit New Zealand","19 Thomas Peacock Place, St Johns, Auckland","0508 CRSSFT","http://www.crossfitnewzealand.co.nz/","-36.885071","174.8515023"
"736","CrossFit Milford","49 Research Drive, Unit B, Milford, CT","(203) 376-8107","http://www.crossfitmilford.com","41.238968","-73.017688"
"737","CrossFit West","350 Coral St, Suite F, Santa Cruz, CA","(831) 325-6353","http://www.crossfitwest.com/","36.9823668","-122.0329267"
"738","Chandler CrossFit","24215 S 122nd Street, Chandler, AZ","(480) 206-3410","http://www.chandlercrossfit.com","33.2271524","-111.819632"
"740","M & M CrossFit","1264 Stealth Street, Livermore, CA","(925) 980-4663","http://mmcrossfit.com/","37.691586","-121.798205"
"741","Sunshine Coast CrossFit","10 Sydal Street, Caloundra, QLD","(041) 068-9809","http://www.crossfitsunshinecoast.com.au/","-26.7950264","153.1028481"
"742","CrossFit Leiftime Fitness","6056 E Baseline Rd # 129, Mesa, AZ","(480) 241-1972","http://www.crossfitleiftimefitness.com","33.384238","-111.71624"
"744","CrossFit Nation","411 Needwood Ave, Easton, MD","(410) 924-8001","http://www.crossfit-nation.com/","38.768652","-76.069359"
"746","CrossFit Queens","25-50 31st St., Astoria, NY","(917) 402-2910","http://crossfitqueensny.com/","40.7693686","-73.9189382"
"747","CrossFit X","3130 Howe Pl. Suite 102, Bellingham, WA","(360) 223-2051","http://www.crossfitx.com/","48.772261","-122.447603"
"749","No Excuses Athletics CrossFit","305 Shawnee N Drive Ste 600, Suwanee, GA","(770) 380-7033","http://www.noexcusesathletics.com","34.04455","-84.057579"
"750","CrossFit Willow Glen","1701 Little Orchard St #20, San Jose, CA","(408) 605-2772","http://www.crossfitwillowglen.com","37.3072191","-121.8740177"
"751","CrossFit North East England","West 15 Whickam View, Newcastle upon Tyne, Tyne and Wear","+44 (0) 7786 91","http://crossfitnee.typepad.com","54.9734892","-1.6746077"
"753","CrossFit Lineage","7525-72A Street NW, Edmonton, AB","(780) 982-2802","http://www.crossfitlineage.com/","53.5113188","-113.4395663"
"754","CrossFit Wilmington","2020 Capital Drive, Wilmington, NC","(910) 690-0331","http://www.crossfitwilmington.com","34.282649","-77.8738149"
"755","Harbor City CrossFit","2735 Center Place Suite 110, Melbourne, FL","(321) 600-0902","http://harborcitycrossfit.com","28.1923127","-80.6672662"
"756","CrossFit Peru","Centro Naval de San Borja. Ave. San Luis block 24, San Borja, Lima","(511) 447-1510","http://www.CrossFitPeru.com","-12.0972833","-76.9951041"
"757","CrossFit Zone","708 Pembroke St, Victoria, BC","(250) 380-9392","http://www.crossfitzone.ca","48.4327491","-123.3645108"
"758","CrossFit BodyLab","2300 S. College Ave, Bryan, TX","(817) 480-5910","http://www.thebodylab.net/","30.647013","-96.364896"
"759","Go CrossFit","209 10th Ave S #149, Nashville, TN","(615) 251-1500","http://gocrossfit.com/main/","36.154734","-86.782191"
"760","Crossfit Pickering","1734 Orangebrook Court Unit 1, Pickering, ON","(416) 451-6214","http://www.crossfitpickering.com","43.8309298","-79.0641687"
"761","CrossFit Black Diamond","101 Copperwood Way, Suite N, Oceanside, CA","(619) 865-5384","http://crossfitblackdiamond.com","33.217317","-117.340031"
"762","CrossFit PEI","40 Enman Crescent, Charlottetown, PE","(902) 894-4400","http://www.crossfitpei.ca","46.261284","-63.148379"
"763","CrossFit Mansfield","107 West Dallas Street, Mansfield, TX","(817) 995-0954","http://www.crossfitmansfield.com","32.560277","-97.143516"
"766","CrossFit Hoboken","38 Jackson St, Hoboken, NJ","(201) 259-4020","http://www.crossfithoboken.com","40.7373047","-74.0417947"
"767","CrossFit East Decatur","185 Laredo Drive, Decatur, GA","(404) 371-1355","http://www.crossfiteastdecatur.com/","33.780491","-84.268122"
"768","DEFY!","6850 W 116th Ave, Unit A, Broomfield, CO","(720) 560-1586","http://www.defylimitations.com/","39.907274","-105.072284"
"769","Crossfit Cache Valley","840 North 50 West, Logan, UT","(435) 760-0024","http://crossfitcachevalley.com/","41.7471465","-111.8358175"
"770","Lone Star Crossfit","12046 Potranco, San Antonio, TX","(210) 316-1677","http://www.lonestarcrossfit.com/","29.4331384","-98.7215749"
"771","CrossFit South Philly","744 South 11th Street, Philadelphia, PA","(860) 982-8575","http://www.crossfitsouthphilly.com/","39.9409724","-75.16098"
"772","Potomac CrossFit","1320 N Courthouse Rd, Arlington, VA","(202) 683-9537","http://www.potomaccrossfit.com","38.8888598","-77.0838232"
"773","Viking CrossFit","350 West 800 North, Orem, UT","(801) 226-1014","http://www.vikingcrossfit.com/","40.3120846","-111.7064574"
"774","CrossFit Wyre Forest","Unit 2a, Bewdley Business Park, Long Bank, Bewdley, Worcestershire","07866634898","http://www.crossfitwyreforest.com/","52.3660555","-2.3577705"
"775","Ludington CrossFit","300 S. Rath Ste. 102, Ludington, MI","(231) 357-4328","http://www.ludingtoncrossfit.com","43.9534818","-86.4492165"
"776","Goulburn Valley CrossFit","4/7 Joseph Baldwin Place, Shepparton, Victoria","(040) 922-4495","http://www.goulburnvalleycrossfit.com/","-36.3717407","145.4261126"
"777","Again Faster","One Design Center Place, Suite 313, Boston, MA","(617) 771-0626","http://www.againfaster.com/","42.3438995","-71.034309"
"778","CrossFit Brand X","432 Maple Street, Ramona, CA","(760) 788-8091","http://www.brandxmartialarts.com/","33.046041","-116.876529"
"779","CrossFit Missoula","2115 1/2 South Avenue W, Missoula, MT","(406) 396-4069","http://www.crossfitmissoula.com/","46.8492109","-114.002867"
"780","CrossFit ATM","7610 Eastmark Dr., College Station, TX","(979) 492-7014","http://www.crossfitatm.com/","30.618352","-96.298226"
"781","CrossFit Ann Arbor","670 Airport Blvd., Suite 3, Ann Arbor, MI","(734) 730-0188","http://www.hyperfitusa.com/","42.2320432","-83.7428778"
"782","CrossFit Arizona","3151 N. Piper Avenue, Suite 101-A, Casa Grande, AZ","(480) 797-4034","http://www.crossfitaz.typepad.com/","32.950667","-111.758251"
"783","CrossFit Atlanta","200 Permalume Pl. NW, Atlanta, GA","(404) 862-6580","http://www.crossfitatlanta.com","33.80192","-84.4284725"
"784","CrossFit Boston","114 Western Ave, Allston, MA","(617) 903-4658","http://www.crossfitboston.com/","42.36281056328458","-71.12444062200927"
"785","CrossFit Calgary","#17 141 Crowfoot Way NW, Calgary, AB","(403) 202-5559","http://www.crossfitcalgary.ca/","51.1258027","-114.2079333"
"786","CrossFit Central","6205-A Burnet Rd., Austin, TX","(512) 791-7215","http://www.crossfitcentral.com/","30.337216","-97.73895"
"788","CrossFit Champions","17575 North Eldridge Parkway, Suite C, Tomball, TX","(281) 826-2321","http://www.crossfitchampions.com/","30.0222011","-95.6094689"
"789","CrossFit Chicago","1444 W. Willow, Suite R, Chicago, IL","(773) 281-0411","http://www.crossfitchicago.com/","41.914259","-87.6632698"
"790","CrossFit Chula Vista","821 Kuhn Dr. Suite 106, Chula Vista, CA","(619) 934-9934","http://www.crossfitchulavista.com/","32.6533423","-116.9672588"
"791","CrossFit DC","1722 14th St. NW, Washington, DC","(202) 450-6432","http://www.crossfitdc.com/","38.913387","-77.032403"
"792","CrossFit Denver","130 Lipan St, Denver, CO","(720) 515-9348","http://www.crossfitdenver.com/","39.719033","-105.001232"
"793","Diablo CrossFit","2447 Estand Way, Pleasant Hill, CA","(925) 465-0015","http://www.diablocrossfit.com/","37.942488","-122.053063"
"794","CrossFit DPL Vancouver Island","#135-1057 Langford Parkway, Victoria, BC, Victoria, BC","(250) 391-8761","http://dplcrossfit.com/","48.4431239","-123.5226066"
"796","CrossFit Eastside","2869 152nd Ave NE, Redmond, WA","(206) 228-2333","http://www.crossfiteastside.com/","47.6366605","-122.1376711"
"797","Jet City CrossFit","1115 S. Elizabeth St, Seattle, WA","(425) 516-9014","http://jetcitycrossfit.com/","47.5446276","-122.317735"
"798","CrossFit St. Pete","2740 25th St. N, St. Petersburg, FL","(580) 284-0653","http://www.stpetecrossfit.com","27.797116","-82.667589"
"799","CrossFit Cincinnati","6725 Montgomery Road, Cincinnati, OH","(513) 351-0600","http://crossfitcincinnati.net/","39.1901421","-84.4098054"
"800","CrossFit Ethos","23001 Del Lago Dr., Suite B-2, Laguna Hills, CA","(949) 305-3334","http://www.crossfitethos.com/","33.628664","-117.72787"
"801","CrossFit Threshold","8771 SW 133rd St, Miami, FL","(305) 546-7368","http://www.crossfitthreshold.com/","25.646885","-80.335113"
"802","South Baltimore CrossFit","1100 Russel St, Baltimore, MD","(443) 223-1736","http://www.southbaltimorecf.com/","39.2791919","-76.6241898"
"803","Treasure Coast CrossFit","144 Sebastian Blvd, Suite 103, Sebastian, FL","(772) 584-9310","http://www.treasurecoastcrossfit.com","27.7672367","-80.5131287"
"804","CrossFit Hollywood North","407 N Hollywood Road, Suite B, Houma, LA","(985) 381-5231","http://","29.6118277","-90.7294526"
"805","Reebok CrossFit Ramsay","2600 Portland St SE, Calgary, AB","(403) 969-8362","http://reebokcrossfitramsay.com/","51.0311725","-114.032391"
"806","CrossFit Hollywood","310 S. La Brea Ave, Ste C, Los Angeles, CA","(619) 981-2739","http://www.crossfithollywood.com","34.068509","-118.343683"
"808","CrossFit Grants Pass (GP)","123 SW M Street, Grants Pass, OR","(541) 450-9588","http://www.crossfitgp.com","42.433891","-123.331303"
"809","CrossFit Inferno","207 Suburban Rd Unit 1, San Luis Obispo, CA","(805) 710-2019","http://www.crossfit-inferno.com","35.2440235","-120.6675555"
"810","CrossFit Durham","410 West Geer Street, Durham, NC","(571) 224-3706","http://www.crossfitdurham.com/","36.004031","-78.900504"
"811","CrossFit Alliance","600 Laurens Road, Unit E, Greenville, SC","(864) 420-1646","http://www.crossfitalliance.com/","34.850245","-82.375789"
"812","CrossFit Charleston","450 Deanna Lane, Unit B2, Wando, SC","(843) 670-1370","http://crossfitcharleston.blogspot.com/","32.9050727","-79.9179043"
"813","CrossFit Lake City","195 Hazel Ave, Coeur d ' Alene, ID","(307) 680-6221","http://www.crossfitlakecity.com/","47.6902519","-116.7838782"
"814","CrossFit Lake Country","4439 Vettelson Rd, Hartland, WI","(262) 227-3447","http://www.crossfitlakecountry.com/","43.100729","-88.365286"
"815","Level 10 CrossFit","2628 Lincoln Blvd., Oroville, CA","(530) 403-9866","http://www.level10crossfit.com/","39.5065867","-121.5557976"
"819","CrossFit Fairfax","2831 Dorr Ave, Fairfax, VA","(703) 626-0232","http://www.crossfitfairfax.com/","38.8774102","-77.2337168"
"820","CrossFit Flagstaff","1072 E. Old Canyon Ct, Flagstaff, AZ","(928) 275-2175","http://crossfitflagstaff.com/","35.190061","-111.638427"
"821","CrossFit Gulf Coast","4463 Ashton Road, Unit C, Sarasota, FL","(941) 228-8341","http://www.crossfitgulfcoast.com/","27.2766919","-82.4794855"
"822","CrossFit Huntington Beach (HB)","19400 Beach Blvd., Suite 4 & 5, Huntington Beach, CA","(714) 553-9226","http://crossfithb.com/","33.6809013","-117.9881833"
"823","CrossFit HEL","4830 NE MLK, Portland, OR","(503) 522-0233","http://www.crossfithel.com/","45.5578374","-122.661108"
"824","CrossFit Kansas City","5317 W 94th Terrace, Prairie Village, KS","(913) 905-1944","http://crossfitkansascity.com/","38.9579731","-94.6473797"
"825","CrossFit London UK","Arch 9 Malcolm Place, Bethnal Green, London","07969922831","http://www.crossfitlondonuk.com/","51.527408","-0.0660179"
"826","CrossFit Long Beach","2431 Orange Avenue, Signal Hill, CA","(562) 492-6951","http://www.crossfitlongbeach.com/","33.80164","-118.1765457"
"827","CrossFit Las Vegas","7540 Dean Martin Dr. Ste 508, Las Vegas, NV","(702) 900-2358","http://www.crossfitlasvegas.com/","36.052553","-115.182936"
"828","CrossFit Los Angeles (LA)","3201 Santa Monica Blvd., Santa Monica, CA","(310) 260-9550","http://www.crossfitla.com","34.0380071","-118.4685391"
"829","CrossFit Marina","15471 La Salle Lane, Huntington Beach, CA","(714) 720-7239","http://crossfitmarina.typepad.com/","33.737462","-118.019694"
"830","CrossFit Melbourne","First floor, 904 Glen Huntly Rd, Caulfield South, VIC","(040) 936-9748","http://www.crossfitmelbourne.com.au/","-37.8876043","145.0278334"
"831","CrossFit Michiana","2774 Faith Avenue, Elkhart, IN","(574) 262-3900","http://www.crossfitmichiana.com/","41.7239724","-86.0237753"
"832","CrossFit Mikes Gym","32067 Via Vera, Bonsall, CA","(760) 941-5852","http://www.mikesgym.org/","33.294097","-117.188636"
"833","CrossFit Montreal","4850 Saint-Ambroise suite 100, Montreal, QC","(514) 838-6073","http://crossfitmontreal.ca/","45.4697146","-73.5876374"
"834","CrossFit Gymert Nederland","Amer 37, 5422 VP Gemert, ","0031-492-324967","http://www.crossfitgymert.nl/","51.5639738","5.707079"
"835","CrossFit Newcastle","1 Stephen St Georgetown, Newcastle, NSW","+0410 340 927","http://www.crossfitnewcastle.com.au","-32.912115","151.73114"
"836","CrossFit Seattle","4201 9th Ave NW, Seattle, WA","(206) 992-7330","http://www.crossfitseattle.com","47.6578112","-122.3672477"
"837","CrossFit NYC","44 W 28th St., 2nd Floor, New York, NY","(212) 274-1085","http://www.crossfitnyc.com/","40.7456231","-73.9898357"
"838","CrossFit Oahu","556 Reed Lane, Honolulu, HI","(808) 351-0466","http://www.crossfitoahu.com/","21.3019602","-157.8606694"
