"id","name","address","phone","url","latitude","longitude"
"1","http://goldenstatecrossfit.com/","11174 La Grange Ave, Los Angeles, CA","(818) 665-6512","Golden State CrossFit","34.0423563","-118.4413598"
"3","http://www.crossfitpersist.com/","165 Amboy Ave, #705, Morganville, NJ","(732) 687-1050","CrossFit Persist","40.360365","-74.289418"
"4","http://www.farnorthcrossfit.com","17 Finlayson Street, Whangarei, Northland","021 022 09234","Far North CrossFit","-35.7270373","174.3274186"
"5","http://crossfitdubuque.com/","3188 Hughes Court, Dubuque, IA","(563) 552-8423","CrossFit Dubuque","42.4807599","-90.7091907"
"6","http://www.ballstoncrossfit.com/","1110 North Glebe Rd, Arlington, VA","(703) 688-2238","Ballston CrossFit","38.8837502","-77.1172427"
"8","http://www.crossfitmoorabbin.com","16 Coachranes Road, Moorabbin, Victoria","+61 (0)418 565 065","CrossFit Moorabbin","-37.9422822","145.0619681"
"9","http://www.crossfitbartlesville.com","3822 SE Kentucky Suite 13-14, Bartlesville, OK","(918) 350-0120","CrossFit Bartlesville","36.7552459","-95.9354815"
"10","http://www.armorcrossfit.com/","880 Macguire Road, Unit B, Ocoee, FL","(407) 614-8997","Armor CrossFit","28.556221","-81.543222"
"11","http://www.crossfit5150.com","1480 E 28th St, Signal Hill, CA","(714) 883-2182","CrossFit 5150","33.8080324","-118.1733102"
"12","http://www.crossfitkarlstad.se/","Kolvgatan 1A, Karlstad, Värmlands Län","+46708282471","CrossFit Karlstad","59.3896205","13.4792898"
"13","http://soulruckus.com/","3750 S Mason Road, Katy, TX","(281) 761-7877","CrossFit Soul Ruckus","29.732115","-95.756903"
"14","http://reebokcrossfitstolitsa.ru/","4/1 Proektiruemy proezd 5231, Moscow, Moscow","79153737403","CrossFit Reebok Stolitsa","55.671153847192215","37.438650493316686"
"16","http://www.crossfitbelair.com/","350 Granary Road, Forest Hill, MD","(443) 564-1882","CrossFit Bel Air","39.568371","-76.360305"
"17","http://crossfitsugarland.com/","5750 New Territory Blvd, Sugar Land, TX","(713) 962-9515","CrossFit Sugar Land","29.5902022","-95.6770173"
"18","http://www.crossfitconshohocken.com/","701 E Elm St, Conshohocken, PA","(215) 435-4484","CrossFit Conshohocken","40.073533","-75.293705"
"19","http://crossfit603.com/","98 Old Derry Road, Unit B1, Hudson, NH","(603) 490-3188","CrossFit 603","42.8091956","-71.4136647"
"20","http://auxiliarycrossfit.com/","225 Sterling Road, Toronto, ON","(416) 859-8266","Auxiliary CrossFit","43.6553484","-79.4463025"
"22","http://www.crossfithonor.com","7562 Penn Dr., Suite 160, Allentown, PA","(610) 248-8050","CrossFit Honor","40.5774067","-75.6163645"
"23","http://","Reebok Ltd. Pepper Rd, Cheshire, England","447595344833","CrossFit Reebok Stockport","53.37794437775","-2.1412024056885457"
"24","http://www.alisocrossfit.com","6 Journey, Suite 300, Aliso Viejo, CA","(949) 374-9110","Aliso CrossFit","33.5687355","-117.7283231"
"25","http://www.crossfitexceed.com/","25003 Pitkin Rd. Unit G200, Spring, TX","(832) 726-2900","CrossFit Exceed","30.122481","-95.4396919"
"26","http://crossfitsouthtyler.com/","105 E. Main, Bullard, TX","(903) 534-8444","CrossFit 1832","32.1399108","-95.3210524"
"27","http://fitstrongunitedcrossfit.com/","2310 N Navarro Ste B, Victoria, TX","(361) 648-6696","Fit Strong United CrossFit","28.816634","-96.999895"
"28","http://crossfitxclusive.com/","976 rue Principale, suite 2, Beresford, NB","(506) 226-0607","CrossFit Xclusive","47.6909316","-65.7001882"
"29","http://www.crossfitescazu.com/","De la antigua rotonda de Multiplaza de Escazú, 300 mts norte.  Bodegas Roca Azul Center #12, Escazu, San Jose","(506) 2215-0608","CrossFit Snaga Escazu","9.920695","-84.1461519"
"30","http://crossfit650.com","1213 San Mateo Avenue, San Bruno, CA","(415) 298-4381","CrossFit 650","37.639563","-122.411835"
"31","http://www.sycamorecrossfit.com/","1330 East State Street, Sycamore, IL","(815) 508-4243","Sycamore CrossFit","41.983893","-88.65799"
"32","http://crossfitevviva.com/","234 West 6th Ave., Eugene, OR","(541) 912-7513","CrossFit Evviva","44.0529873","-123.096346"
"33","http://www.CrossFitGetSome365.com","4131 Smith St, Ste C, Bacliff, TX","(713) 855-7362","CrossFit Getsome365","29.504242","-94.997388"
"34","http://crossfitcolossus.com.au/","297 Cambridge Road, Mornington, Tasmania","+61400255351","CrossFit Colossus","-42.857664","147.391538"
"35","http://www.crossfit-781.com","242 Libbey Parkway, Weymouth, MA","(781) 803-2929","CrossFit 781","42.1910978","-70.940384"
"36","http://www.crossfit416.ca","390 Queens Quay W. Unit 114, Toronto, ON","(416) 901-0416","CrossFit 416","43.6379297","-79.3910464"
"38","http://","5 N. Naches Ave., Yakima, WA","(509) 972-5276","Yakima YMCA CrossFit","46.604225","-120.499651"
"39","http://www.crossfitgiant.com/","115 River Rd, Pier 112, Edgewater, NJ","(201) 228-9966","CrossFit Giant","40.8270448","-73.975694"
"40","http://crossfitnorthburlington.ca/","3523 B Walkers Line, Burlington, ON","(289) 208-5348","CrossFit North Burlington","43.4053538","-79.8417618"
"41","http://www.crossfit-mainz.de/","Oppenheimer Strasse 44, Nieder Olm, n.a.","+49 177 797 2025","CrossFit Mainz","49.9045488","8.2012766"
"43","http://www.crossfitwestdublin.com/","Unit 6C, Celbridge, Co. Dublin","(086) 021-7333","CrossFit West Dublin","53.3420058","-6.5185095"
"44","http://","7908 88th Ave, Edmonton, AB","(780) 893-7424","CrossFit Corpo Forte","53.5236542","-113.449469"
"45","http://","Las Brisas Building Lot #8 Federico Costas St # 54, San Juan, ","(789) 598-9494","CrossFit Reebok Iron Heart","18.4180126","-66.0671709"
"46","http://bvmcrossfit.com/","6711 Burnet Lane, Austin, TX","(512) 779-2099","BVM CrossFit","30.342838","-97.736696"
"47","http://www.crossfit2-0.com/","844 W. San Marcos Blvd, Ste 103, San Marcos, CA","(760) 525-8040","CrossFit 2.0","33.136437","-117.183327"
"48","http://","Unit 3, Fishguard Road, Haverfordwest, England","01834869932","CrossFit Dynamic","52.3555177","-1.1743197"
"49","http://www.crossfitseo.com","762 W. Union St. Ste A, Athens, OH","(740) 591-0735","CrossFit SEO","39.3220079","-82.1348809"
"50","http://www.crossfittriton.com","801 North Main St Ext, Wallingford, CT","(203) 631-5367","CrossFit Triton","41.4755619","-72.809859"
"51","http://www.crossfitexperience.net/","8725 Youngerman Ct. Suite 110, Jacksonville, FL","(904) 874-4924","CrossFit Experience","30.195511","-81.749435"
"52","http://www.crossfittechnique.com/","4/21 Raws Crescent, Hume, ACT","(042) 992-7982","CrossFit Technique","-35.392401","149.170019"
"54","http://www.crossfitzachary.com/","5041 Highway 19, Unit C, Zachary, LA","(626) 255-4523","CrossFit Zachary","30.6525218","-91.1497247"
"55","http://F5 CrossFit","8117 Bourbon Street, Oklahoma City, OK","(405) 202-5333","F5 CrossFit","35.461736","-97.657039"
"56","http://www.crossfitpampa.com/","200 N Hobart, Pampa, TX","(806) 662-1264","CrossFit Pampa","35.5319744","-100.9718065"
"57","http://www.bechallengedcrossfit.com/","4795 Us Hwy 96 N Unit 2, Silsbee, TX","(409) 656-4243","Be Challenged CrossFit","30.3570693","-94.1258441"
"58","http://www.crossfit919.com","2500 Meridian Parkway, Suite 125, Durham, NC","(919) 656-4503","CrossFit 919","35.911441","-78.89395"
"59","http://www.helotescrossfit.com/","12266 Bandera Road Suite 301 & 303, Helotes, TX","(210) 618-1997","Helotes CrossFit","29.559078","-98.6721869"
"60","http://","Virusmäentie, Turku, Varsinais-Suomi","+358405749628","Reebok CrossFit Turku","60.4663689","22.2793196"
"61","http://www.crossfitnotomorrow.com/","78 Fuller St, Collaroy Plateau, NSW","61299721094","CrossFit No Tomorrow","-33.726845","151.28759"
"64","http://www.crossfitgem.com/","1/51 Topham Road, Smeaton Grange, NSW","+61404868889","CrossFit Gem","-34.0353018","150.7541218"
"66","http://www.crossfitfaction.co.uk/","Harrison Street Unit 5a, Golden Triable Industrial Estate, Widnes, Halton","07923391312","CrossFit Faction","53.355017","-2.7677041"
"68","http://chrysaliscrossfit.com/","46 Georges-Forest Place, Winnipeg, MB","(204) 233-1000","Chrysalis CrossFit","49.8855764","-97.107525"
"71","http://","Cerrada de Oaxaca 15 Colonia Jardines del Pedregal, CP, Mexico DF","+525551354734","CrossFit BETA","19.3205752","-99.2092897"
"72","http://www.reebokcrossfit020.nl/","Hoogoorddreef 3, Amsterdam, Amsterdam","(020) 609-0410","CrossFit Reebok 020","52.3102476","4.9471634"
"75","http://crossfit14.com/","27233 State Road 56, Wesley Chapel, FL","(860) 798-0038","CrossFit 14","28.1865582","-82.3656624"
"76","http://www.rockjunglefitness.com/Rock_Jungle_CrossFit/","10247 - 184 Street, Edmonton, AB","(780) 454-7625","Rock Jungle CrossFit","53.54515894405964","-113.6390184963505"
"77","http://www.crossfit904.com","11366 Trade Court, Suite 4, Jacksonville, FL","(904) 866-0558","CrossFit 904","30.163994","-81.531813"
"78","http://www.crossfitblur.com","8175 E Raintree Dr Suite 2, Scottsdale, AZ","(715) 495-0086","CrossFit Blur","33.618702","-111.904578"
"79","http://www.crossfitanaerobicinc.com/cfanaerobic-laguna-niguel/","27612 El Lazo, Laguna Niguel, CA","(949) 709-4900","CrossFit Anaerobic 2","33.5630498","-117.7096498"
"80","http://crossfitmurray.blogspot.com/","311 A Solar Dr, Murray, KY","(270) 761-3809","CrossFit Murray","36.6225734","-88.2995006"
"81","http://physicscrossfit.com/","7-3809 St-Joseph Blvd., Ottawa, ON","(819) 205-2665","Physics CrossFit","45.460539","-75.5563605"
"82","http://","Lords, 3 Price Street, Subiaco, Perth, WA","(041) 598-4921","Range of Motion CrossFit","-31.9463443","115.8154245"
"83","http://crossfitoceanbeach.com/","1811 Sunset Cliffs Blvd., San Diego, CA","(503) 568-6741","CrossFit Ocean Beach","32.743149","-117.248635"
"84","http://cfvisalia.com/","602 E Acequia Ave, Visalia, CA","(559) 623-4427","CrossFit Visalia","36.3292848","-119.2865914"
"85","http://crossfitfenrir.com/","845 Creative Drive, Lakeland, FL","(863) 398-3527","CrossFit Fenrir","27.9631099","-81.970197"
"86","http://www.crossfit-fuse.com/","17625 NE 65th St, #140, Redmond, WA","(425) 861-4996","CrossFit Fuse","47.663733","-122.104787"
"88","http://crossfitlugo.blogspot.com/","Via Puccini n°1, Lugo (Ra), Italy","(335) 668-4815","CrossFit Lugo","44.4253238","11.9027978"
"89","http://www.crossfithinesville.com/","1875 EG Miles Parkway, Hinesville, GA","(912) 385-3837","CrossFit Hinesville","31.846877","-81.5959453"
"91","http://paceperformance.net/","66 Montauk Highway, Amityville, NY","(631) 521-9158","CrossFit Pace Performance","40.6714794","-73.4200672"
"92","http://CrossFitcredence.com","1340 22nd St. NW, Rochester, MN","(507) 261-7696","CrossFit Credence","44.045747","-92.482715"
"93","http://crossfit7220.com/","411 S. 20th Street, Laramie, WY","(307) 760-3132","CrossFit 7220","41.3087017","-105.5688778"
"94","http://www.ftxcrossfit.com/","1N030 Gary Ave., Carol Stream, IL","(630) 981-4964","FTX CrossFit","41.8885568","-88.1227058"
"96","http://www.crossfitemergence.com/","1200 Shakespeare St, Missoula, MT","(406) 531-1712","CrossFit Emergence","46.883258","-114.008423"
"97","http://cometcrossfit.com/","7836 Oberlin Rd, Elyria, OH","(440) 865-0108","Comet CrossFit","41.381583","-82.19152"
"98","http://www.crossfitorion.ca","1999 Nobel #3, Sainte-Julie, QC","(514) 266-6191","CrossFit Minotaure","45.578047","-73.3266833"
"99","http://crossfitdga.com/","709 Firetower Rd, Dublin, GA","(478) 290-8885","CrossFit DGA","32.4870211","-82.9216688"
"100","http://www.cbfit.ca","80 Regina Rd, Vaughan, ON","(905) 856-9348","Crossbones CrossFit","43.7724672","-79.6115926"
"101","http://www.dekacrossfit.com/","779 Boulevard Industriel, Blainville, QC","(450) 806-3352","Deka CrossFit","45.6724643","-73.8627723"
"102","http://crossfitintersect.com/","1860 Obispo Avenue, Unit 1, Signal Hill, CA","(714) 553-3336","CrossFit Intersect","33.7910369","-118.1544551"
"103","http://www.crossfitcarbondale.com/","1215 E. Walnut St., Carbondale, IL","(618) 529-5511","CrossFit Carbondale","37.7268901","-89.1937527"
"104","http://www.crossfitannandale.com/","7861-B Heritage Drive, Annandale, VA","(803) 414-9538","CrossFit Annandale","38.8256839","-77.2130768"
"105","http://crossfitparsippany.com/","323 New Rd, Suite 6, Parsippany, NJ","(201) 424-8773","CrossFit Parsippany","40.8553823","-74.3486651"
"106","http://www.crossfitwestgate.com.au/","1/60 Ablemarle Street, Williamstown North, VIC","(041) 555-1445","CrossFit Westgate","-37.850179","144.859368"
"110","http://www.crossfitkindred.com/","1460 Tully Rd, Ste 608, San Jose, CA","(408) 293-2051","CrossFit Kindred","37.3162807","-121.8324378"
"111","http://","384 Oyster Point Blvd, Suite 6, South San Francisco, CA","(650) 676-9782","CrossFit South San Francisco","37.665761","-122.3839988"
"112","http://www.crossfitks.com","19720 Elizabeth Way, Canyon Country, CA","(661) 373-7430","CrossFit Kalos Sthenos","34.4123765","-118.4811261"
"113","http://southdadecrossfit.com/","10890 SW 188 Street, Suite 92, Miami, FL","(786) 486-2333","South Dade CrossFit","25.5931951","-80.3675021"
"114","http://www.crossfit616.com/","1940 Turner Avenue NW, Grand Rapids, MI","(616) 780-8595","CrossFit 616","42.9987365","-85.6785115"
"115","http://","Rentemestervej 56, Copenhagen NV, N/A","+45 61 27 24 81","CrossFit Nordvest","55.7069917","12.5275096"
"116","http://www.crossfitmaitland.com.au/","219 High Street, Maitland, NSW","(042) 944-3204","CrossFit Maitland","-32.739576","151.562023"
"117","http://","2804 Forest Hills Rd, Wilson, NC","(252) 230-7823","CrossFit Wilson","35.709039","-77.952487"
"118","http://www.crossfitjerusalem.com/","Teddy Stadium, Jerusalem, Israel","(011-972) 54-5250576","CrossFit Jerusalem","31.7736","35.224998"
"119","http://www.crossfitchatswood.com/","5/108 Warrane Rd, Sydney, NSW","(042) 105-6635","CrossFit Chatswood","-33.7897703","151.2026127"
"121","http://www.crossfit417.com/","5108 N 22nd Street, Ozark, MO","(417) 380-3195","CrossFit 417","37.0630857","-93.2325531"
"122","http://www.gardenscrossfit.com/","4098 PGA Blvd, Palm Beach Gardens, FL","(561) 630-3118","Gardens CrossFit","26.8423556","-80.0988478"
"123","http://www.crossfitlbc.com/","212 Bristol Pike, Bristol, PA","(610) 849-6448","CrossFit LBC","40.1088704","-74.856768"
"124","http://www.boomfitnesspdx.com/crossfit/","18039 SW Lower Boones Ferry Rd, Portland, OR","(503) 995-4905","CrossFit Explosion","45.3920024","-122.750775"
"125","http://www.cannoncrossfit.com/","5907 Star Lane, Houston, TX","(309) 275-3036","Cannon CrossFit","29.727121","-95.482552"
"126","http://www.crossfittrain.com/","1750 SW 3rd Street, Suite M, Corvallis, OR","(541) 224-3194","CrossFit Train","44.548076","-123.266424"
"127","http://www.searcycrossfit.com","921 Hastings Drive, Searcy, AR","(417) 234-4151","Searcy CrossFit","35.2384227","-91.7205496"
"128","http://www.crossfit-sa1.blogspot.com/","Unit 3, SA1 Business Park Langdon Road, Swansea, Wales","07595520601","CrossFit SA1","51.6204703","-3.9277001"
"129","http://www.crossfitkingsandqueens.com","2007 Manufacturing Dr, Clinton, IA","(815) 540-0835","Kings & Queens CrossFit","41.8278364","-90.2332211"
"130","http://www.crossfitklamath.com/","1311 Elm Ave, #B, Klamath Falls, OR","(541) 331-4357","CrossFit Klamath","42.222753","-121.776332"
"131","http://www.crossfitnorthpasadena.com/","3636 E. Colorado Blvd., Pasadena, CA","(626) 617-6037","CrossFit North Pasadena","34.145888","-118.075251"
"134","http://crossfit-drive.com/","23 Beta Court, Suite A, San Ramon, CA","(925) 743-0222","CrossFit Drive","37.7810258","-121.980989"
"135","http://www.crossfitharford.com","1659-D Robin Circle, Forest Hill, MD","(301) 717-5517","CrossFit Harford","39.5694745","-76.3610796"
"136","http://www.crossfitnapoli.com/","Via Francesco Paolo Tosti 16, Napoli, Italy","+393381940776","CrossFit Napoli","40.8440149","14.2200944"
"137","http://www.crossfitmilesmilitis.com/","104 North Lloyd Street, Crestview, FL","(850) 499-4654","CrossFit Miles Militis","30.7546159","-86.5764394"
"138","http://","313 Center Street, Meadow Lake, SK","(306) 240-7816","Pure Energy CrossFit","54.1313991","-108.4309155"
"139","http://www.crossfit2232.com","1201 Main Street, Bryson City, NC","(828) 736-3620","CrossFit 2232","35.432424","-83.4300807"
"140","http://www.hardbatcrossfit.com/","70 Aleph Drive, Suite B, Newark, DE","(484) 256-0465","Hardbat CrossFit","39.6446479","-75.7290359"
"142","http://www.rocketcrossfit.com/","5720 Rainier Ave. S, Seattle, WA","(206) 853-9181","Rocket CrossFit","47.5506003","-122.277349"
"143","http://www.ridgecrossfit.com","1b 266 Bolton Street, Melbourne, VIC","+61 0412237344","CrossFit Diamond Valley","-37.720435","145.138108"
"144","http://www.crossfitconway.com/","1195 South Harkrider Street, Conway, AR","(501) 514-1375","CrossFit Conway","35.0591748","-92.4250462"
"145","http://www.crossfit225.com/","17839 Airline Hwy Suite D, Prairieville, LA","(225) 772-6564","CrossFit 225","30.336815","-90.9897079"
"146","http://www.athleteegocrossfit.com/","1400 NE 125 Street Unit B, North Miami, FL","(786) 419-8880","AthleteEGO CrossFit","25.889951","-80.170491"
"148","http://www.crossfitevoke.com/","6925 Farmdale Ave, North Hollywood, CA","(818) 764-1392","CrossFit Evoke","34.1971452","-118.3812266"
"149","http://www.rdasgym.co.uk/","Unit 9 Weavers Court, Forest Mill, Selkirk, Selkirkshire","00447903239768","RDAS CrossFit","55.5485","-2.844822"
"150","http://www.missiontrainingsystems.co.uk/cavementraining.php","29A Beaverhall Road, Edinburgh, Scotland","0131 557 0520","CrossFit MTS","55.9648942","-3.1920453"
"151","http://crossfitblainville.ca/","14153 Curé-Labelle, app 2, Mirabel, QC","(514) 267-5308","CrossFit Blainville","45.7090036","-73.9348736"
"152","http://getfitcrossfit.com/","Lot 19990, Ground Floor, Taman Alam Jalan Telanai, Beribi Gadong, Brunei Darussalam","+6738870996","GETFIT CrossFit","4.878573956986203","114.89295154809952"
"155","http://www.lusineterrebonne.ca/","3551 boulevard des entreprises, Terrebonne, QC","(514) 723-2336","CrossFit Terrebonne L'usine","45.7300329","-73.6770729"
"160","http://www.rebelsgym.sk/","Tomašikova 54, Presov, Slovakia","00421 948 017 098","CrossFit Presov","49.0167938","21.2286724"
"161","http://www.crossfit716.net/716/","84 Sweeney Street, North Tonawanda, NY","(716) 553-6003","CrossFit 716","43.022457","-78.876831"
"162","http://www.crossfitsudbury.com/","1351-E Kelly Lake Rd. Unit 7, Sudbury, ON","(705) 521-4790","CrossFit Sudbury","46.4649097","-81.0298837"
"164","http://www.crossfitnovem.com","1222-24 Shackamaxon Street, Philadelphia, PA","(215) 510-1284","CrossFit Novem","39.9695907","-75.1345424"
"165","http://www.crossfitalmere.nl/","Hopperzuigerstraat 53, Almere, Flevoland","+31614377930","Reebok CrossFit Almere","52.4017333","5.2657158"
"166","http://www.crossfitaftermath.com/index.php/","11 John St., North Aurora, IL","(630) 618-7331","CrossFit Aftermath","41.804699","-88.325494"
"167","http://xscrossfit.com/","6522 E Ponderosa Drive, Parker, CO","(303) 910-0833","XS CrossFit","39.539896","-104.766009"
"168","http://crossfit3000.com/","82-86 Clark Street, South Melbourne, VIC","+61401015711","CrossFit 3000 South Melbourne","-37.83007","144.960374"
"169","http://www.crossfittriggerpoint.com","5321 Industrial Oaks Parkway, Suite 110A, Austin, TX","(512) 300-2804","CrossFit Trigger Point","30.2387529","-97.8399421"
"170","http://www.animuscrossfit.com/","17401 NW 2nd Ave, #8, Miami Gardens, FL","(414) 467-6839","Animus CrossFit","25.9341751","-80.2046854"
"171","http://www.titancrossfit.com/","100 Cockeysville Road, Suite 150, Cockeysville, MD","(410) 382-5522","Titan CrossFit","39.4818605","-76.6455532"
"172","http://crossfituno.mx/","Paseo de la Asunción 317 Norte, Nave #3, Colonia Bellavista, Estado de Mexico","52 (722) 4378679","CrossFit UNO","19.255429689332978","-99.57309487883145"
"173","http://eternitycrossfit.com/index.php","32242 Paseo Adelanto, Suite E, San Juan Capistrano, CA","(949) 291-7314","Eternity CrossFit","33.493746","-117.664529"
"174","http://fitnessforperformanceandlife.blogspot.com/","80 Red Schoolhouse Road, Unit 110, Chestnut Ridge, NY","(845) 825-2230","CrossFit South Rockland","41.079109","-74.053487"
"175","http://www.true-athletics.com/","850 Sherman Avenue, Hamden, CT","(203) 448-7745","CrossFit True","41.4003891","-72.9149529"
"176","http://www.tracktowncrossfit.com/","771 Williamette Street, Eugene, OR","(541) 514-9980","Track Town CrossFit","44.051336","-123.092395"
"177","http://fuerzacrossfit.com/","Carrera 43 # 31-73, Medellin, Antioquia","01157-3218512317","Fuerza CrossFit","6.2321355","-75.5689422"
"178","http://crossfit6330.com.au/","70 Lion St, Albany, WA","(089) 842-2762","CrossFit 6330","-35.0053368","117.8721942"
"179","http://","San Jeronimo 240; Col. Loreto y campamento; Del. Alvaro Obregon, Mexico City, Mexico","01 55 53 39 56 74","Reebok CrossFit Loreto","19.3356079","-99.1977376"
"180","http://www.crossfitindustrious.com","21619 Hwy 99 , Ste H, Lynnwoon, WA","(206) 755-6290","CrossFit Industrious","47.8028229","-122.328442"
"181","http://www.c4crossfit.com/","20527 FM 1093, #C6, Richmond, TX","(713) 254-6866","C4 CrossFit","29.7023651","-95.7402713"
"182","http://www.crossfitathleticacademy.com/","1600 N. Ocean Ave, Suite 16, Holtsville, NY","(631) 334-7893","CrossFit Athletic Academy","40.811423","-73.020539"
"183","http://www.crossfitlewisburg.com","437 10th Street, Lewisburg, PA","(570) 412-1412","CrossFit Lewisburg","40.965323","-76.894243"
"184","http://strength-power-speed.blogspot.com/","20 Wattle Road, Brookvale, NSW","+61414983101","CrossFit Brookvale","-33.7680406","151.2770258"
"185","http://","608 E. Front St., Arlington, TX","(817) 408-6219","CrossFit North Arlington","32.737466","-97.101283"
"186","http://www.CrossFitAlfa.com","Av. Fuente de Tritones 16 Lomas de San Isidro, Naucalpan, EDO","0115215559674113","CrossFit Alfa","19.4305306","-99.2269614"
"187","http://www.CrossFitoffremont.com","37330 Cedar Blvd., Suites I & J, Newark, CA","(480) 734-7904","CrossFit of Fremont","37.541289","-122.020449"
"189","http://www.crossfitsouthokanagan.com","#104-9503 Cedar Ave, Summerland, BC","(250) 718-6344","CrossFit South Okanagan","49.5872591","-119.6780462"
"190","http://www.crossfitmontgomery.com/","41 East Railroad Street, Montgomery, AL","(877) 907-4141","CrossFit Montgomery","32.3857897","-86.3098049"
"191","http://www.newlondoncrossfit.com","436 Broad Street, Unit B, New London, CT","(203) 927-0025","New London CrossFit","41.362702","-72.115105"
"193","http://www.sugarcreekfitness.com/Sugarcreek_Fitness/Crossfit.html","110 Andreas Dr, Sugarcreek, OH","(330) 852-2456","CrossFit Sugarcreek","40.501117","-81.634806"
"194","http://www.letronocrossfit.com/","976 N. Marshall Way, Layton, UT","(801) 294-6777","Letrono CrossFit","41.0740734","-111.9965726"
"195","http://www.avaloncrossfit.com","545 Medford Street, Charlestown, MA","(925) 997-8440","Avalon CrossFit","42.383961","-71.070779"
"196","http://www.crossfittakeover.com/","585 South Birdneck Rd. Ste 107, Virginia Beach, VA","(310) 972-0995","CrossFit Takeover","36.8209869","-75.9999901"
"197","http://www.CrossFitHub.com","3 Irving Rd, Irving Industrial Building #01-01, Singapore, Singapore","(659) 739-7809","CrossFit Hub","1.3349922","103.902074"
"198","http://ww.NHBCrossFit.com","414 W Grand Parkway South, Suite 197, Katy, TX","(281) 838-4034","NHB CrossFit","29.7753185","-95.7789141"
"199","http://www.DistrictCrossFit.com","1525 Half St. SW, Washington, DC","(202) 507-8255","District CrossFit","38.871227","-77.011071"
"200","http://www.highaltitudecrossfit.com","336 Spring Creek Circle, Unit 1, Gypsum, CO","(970) 343-9040","High Altitude CrossFit","39.6343617","-106.9160943"
"201","http://www.crossfitavon.com/","Unit 15, Merton Road, Bristol, Bristol","07970 493643","CrossFit Avon","51.4826464","-2.5869296"
"202","http://www.BeCrossFit.com","2201 SE Indian st. Unit A-4, Stuart, FL","(772) 285-5709","Be CrossFit","27.1664204","-80.2260183"
"203","http://www.crossfitoceanview.com","9309 Granby Street, Norfolk, VA","(757) 375-9291","CrossFit Norfolk","36.9460374","-76.2593695"
"204","http://crossfitliverpool.blogspot.com/","Unit 18-19 Love Lane, Liverpool, England","07407154901","CrossFit Liverpool","53.4170279","-2.9946518"
"205","http://CrossFitSteeleCreek.com","9301 Forsyth Park Drive, Suite C, Charlotte, NC","(704) 714-7775","CrossFit Steele Creek","35.135965","-80.953308"
"206","http://www.crossfitmov.com/","416 37th St, Parkersburg, WV","(304) 488-6468","Mountain River CrossFit","39.2971547","-81.5485652"
"207","http://Hybridathletics.net","7 Hyde Street, Stamford, CT","(203) 913-5228","CrossFit Hybrid Athletics","41.0939909","-73.5174562"
"209","http://www.crossfitrevival.com","461 River Ave, Eugene, OR","(541) 510-7643","CrossFit Revival","44.0965967","-123.1181744"
"210","http://www.celticcrossfit.co.uk","17 Leeway Court Leeway Industrial Estate, Newport, Wales","07866 721175","Celtic CrossFit","51.5725025","-2.946479"
"211","http://www.tctotalcrossfit.com/","10781 E Cherry Bend Rd, Traverse City, MI","(231) 409-7960","TC Total CrossFit","44.7934644","-85.6409636"
"212","http://www.crossfitsonora.com","14951 Camage Rd., Sonora, CA","(209) 352-5575","CrossFit Sonora","38.0661321","-120.2683582"
"213","http://www.tamcrossfit.com","555 E. Francisco Blvd, Suite 19, San Rafael, CA","(415) 948-8453","Tamalpais CrossFit","37.96584","-122.5150934"
"214","http://livetrainplay.com/","1111 Rancho Conejo Blvd. #106, Newbury Park, CA","(818) 281-5433","Live Train Play CrossFit","34.19401","-118.923719"
"217","http://www.fitnessculture.co.uk","unit 11, Ben Nevis Estate, fort william, Scotland","0447979645798","CrossFit Ben Nevis","56.8250619","-5.0851811"
"219","http://www.crossfitkennesaw.com","1349 Old 41 Hwy., Marietta, GA","(404) 931-8773","CrossFit Kennesaw","33.978553","-84.5639939"
"220","http://www.crossfitvitality.com","7285 Westwinds Blvd NW, Concord, NC","(704) 721-5555","CrossFit Vitality","35.387229","-80.7225268"
"221","http://www.lcvalleycrossfit.com","2981 Thain Grade, Lewiston, ID","(208) 798-8888","CrossFit LC Valley","46.393655","-116.989966"
"222","http://www.crossfitforward.com/","5933 Plank Road, Suite J, Fredericksburg, VA","(540) 226-9560","CrossFit Forward","38.293334","-77.579249"
"223","http://crossfitalive.com.au/","4/149 Old Pacific Hwy, Oxenford, QLD","(043) 123-3222","CrossFit Alive","-27.8880373","153.3138889"
"224","http://www.tribalcrossfit.com","6170 West Chandler Blvd, Suite 4, Chandler, AZ","(602) 492-7348","Tribal CrossFit","33.3060571","-111.9484225"
"225","http://www.CrossFitParadise.com","393 Lehuakona St, Kahului, HI","(808) 633-1765","CrossFit Maui","20.882697","-156.451738"
"226","http://www.crossfitinnovate.com","1049 Martin Luther King Jr. Blvd., Northport, AL","(205) 333-4000","CrossFit Innovate","33.2296057","-87.5688849"
"227","http://www.crossfitsurge.com","10621 Irma Dr, Unit C, Denver, CO","(303) 907-3682","CrossFit Surge","39.890542","-104.9645831"
"228","http://www.crossfitgigharbor.com/","6521 43rd Ave NW, Suite ""A"", Gig Harbor, WA","(253) 858-5432","CrossFit Gig Harbor","47.3157671","-122.5951434"
"230","http://www.crossfitshoalhaven.com","1/33 Tom thumb Ave Sth, Nowra, NSW","(024) 424-2624","CrossFit Shoalhaven","-34.911998","150.585651"
"231","http://www.crossfitsac.com","4755 Auburn Boulevard, Suite C, Sacramento, CA","(530) 559-2283","CrossFit SAC","38.6553367","-121.35299"
"232","http://crossfit-eo.de/","Weltenburger Str. 6, Munich, Bavaria","00491771765858","CrossFit eo","48.1410706","11.6270872"
"233","http://www.fitbodiesmovement.com/","412 Olympia Drive, Bloomington, IL","(309) 242-3478","Fit Bodies CrossFit","40.470225","-88.907389"
"234","http://transitioncrossfit.com","2334 Wyecroft Rd  Unit B11, Oakville, ON","(647) 284-5901","Transition CrossFit","43.4130159","-79.7309528"
"235","http://geauxcrossfit.com","3854 American Way, Baton Rouge, LA","(619) 300-1309","Geaux CrossFit","30.4175819","-91.0534969"
"236","http://www.crossfitcfs.com/","Ambergris Caye, Boca del Rio, San Pedro","(501) 206-2464","CrossFit CFS","18.001592","-87.9432837"
"237","http://www.projectfitness.org","2514 Johns Street, Garden City, KS","(620) 640-5732","Project Fitness CrossFit","37.9879815","-100.8819764"
"238","http://www.CrossFitOnTheRoad.be","Rue Th. Delbar 33, Waterloo, Brabant Wallon","+32 472 76 53 54","CrossFit On The Road","50.71469","4.3991"
"239","http://www.crossfitstonybrook.com","22 Woods Corner Rd, Setauket, NY","(631) 445-3740","CrossFit Stony Brook","40.9263576","-73.1192775"
"240","http://www.crossfitaledo.com","10315 East Bankhead Highway, Aledo, TX","(817) 204-9830","CrossFit Aledo","32.720416","-97.613328"
"241","http://crossfitmthood.com/","335 NE 8th St, Gresham, OR","(503) 491-5100","CrossFit Mt. Hood","45.503431","-122.427463"
"243","http://www.crossfitfresno.com","90 E. Escalon Avenue Suite #109, Fresno, CA","(559) 492-0432","CrossFit Fresno","36.82727","-119.788388"
"244","http://www.crossfitcrux.com","118 Sandiford Drive Unit 2, Stouffville, ON","(416) 662-1637","CrossFit Crux","43.9635604","-79.2697446"
"245","http://www.cftuscaloosa.com/","2405 Paul Bryant Drive, Tuscaloosa, AL","(205) 561-9900","CrossFit Tuscaloosa","33.204312","-87.56717"
"247","http://www.crossfitrebels.com","2077 Sunnydale Blvd, Clearwater, FL","(727) 253-4971","CrossFit Rebels","27.9868847","-82.7507945"
"248","http://www.crossfit42s.com.au","2-4 Patrick St, Hobart, Tasmania","(041) 211-0308","CrossFit 42 South","-42.876458","147.325406"
"249","http://www.c3crossfit.com","1615 W. Jefferson, #A, Springfield, IL","(217) 341-9173","Capital City CrossFit","39.808431","-89.683157"
"250","http://www.cooeecrossfit.com.au","37 Lemnos Street, Shenton Park, WA","(042) 554-7005","Cooee CrossFit","-31.955252","115.79402"
"251","http://www.crossfitvictorious.com/","9421 FM 2920, Suite 10B, Tomball, TX","(281) 627-4302","CrossFit Victorious","30.084587","-95.570666"
"252","http://www.nscrossfit.com/","6818 W. Kennewick Ave. Ste F, Kennewick, WA","(509) 845-9796","Natural Selection CrossFit","46.209759","-119.211727"
"253","http://www.northamptoncrossfit.co.uk/","Unit 22 Rothersthorpe Avenue Rothersthorpe Industrial Estate Far Cotton, Northampton, England","0044 7980 707557","CrossFit Northampton (CFN)","52.2251248","-0.9073229"
"254","http://www.inshapecrossfit.com/","calle flerida nolasco #3 arroyo hondo, Santo Domingo, Distrito Nacional","(809) 566-2889","In Shape CrossFit","18.4879254","-69.9360037"
"255","http://www.crossfitkapiti.co.nz","109D Rimu Road, Paraparaumu, Wellington","+64 274 737 139","Crossfit Kapiti","-40.9192069","174.9991296"
"259","http://www.outpostcrossfit.com","2755 N. Delany Rd., Waukegan, IL","(847) 744-0112","Outpost CrossFit","42.402978","-87.904169"
"261","http://www.crossfit425.com/","1628 130th Ave NE, Bellevue, WA","(425) 885-4466","CrossFit 425","47.6248727","-122.1670383"
"262","http://www.crossfitludus.com/","1449 Hornby St, Vancouver, BC","(604) 719-7745","CrossFit Ludus","49.2758325","-123.132323"
"263","http://evansvillecrossfit.com","1230 Heinlein Road, Evansville, IN","(812) 205-0131","Evansville CrossFit","38.054201","-87.539602"
"265","http://www.cascadecrossfit.com","29700 SE High Point Way, Issaquah, WA","(425) 941-0394","Cascade CrossFit","47.534265","-121.946343"
"267","http://www.crossfitrising.com","13 Foster St., Bergenfield, NJ","(201) 338-2405","CrossFit Rising","40.914999","-73.99921"
"268","http://www.crossfitbroadbeach.com.au","8/51 Johnston Street, Southport, QLD","(041) 317-2643","CrossFit Broadbeach","-27.964797","153.405156"
"269","http://crossfitroar.com/","3-80 Webster Road, Stafford, Brisbane, QLD","(043) 711-7187","CrossFit Roar","-27.4149902","153.0158307"
"270","http://www.blackhillscrossfit.com/","1420 Deadwood Ave, Ste B, Rapid City, SD","(605) 786-4317","Black Hills CrossFit","44.1404585","-103.2719621"
"271","http://www.crossfitrife.com/","5741 Bayside Drive Suite 108, Virginia Beach, VA","(757) 227-6757","CrossFit Rife","36.8984654","-76.1855936"
"274","http://crossfitexertion.com/","2 Blue Water Rd, Bedford, NS","(902) 452-6328","CrossFit Exertion","44.72311","-63.707169"
"275","http://urcrossfit.com/","2252 Merchant Ave, Unit 101, Odessa, FL","(727) 534-6967","U R (You Are) CrossFit","28.1933789","-82.6313415"
"276","http://www.theconfluencevt.org/crossfit","654 Granger Road, Suite 4, Berlin, VT","(802) 229-4131","Green Mountain CrossFit","44.2157092","-72.5591612"
"278","http://www.sanitycrossfit.com/","211 S. Market Street, Sullivan, IL","(217) 474-7197","CrossFit Sanity","39.5972329","-88.6186585"
"279","http://www.crossfitchatsworth.com","9144 Jordan Avenue, Chatsworth, CA","(818) 357-5547","CrossFit Chatsworth","34.2367888","-118.6039307"
"282","http://www.impactcrossfit.com/","1880-1882 Johns Drive, Gleview, IL","(847) 858-2807","CrossFit Impact","42.0897778","-87.8100111"
"283","http://www.crossfitorigin.com.au/","8 Glenwood Drive, Thornton, NSW","61422902708","CrossFit Origin","-32.788815","151.635216"
"284","http://www.n-ragedfitness.com","33 New Jersey Avenue Ste 2, Flemington, NJ","(908) 451-3504","N-Raged CrossFit","40.515021","-74.853855"
"285","http://www.crossfitfortwayne.com","829 Lawrence Dr, #2, Fort Wayne, IN","(937) 346-4966","CrossFit Fort Wayne","41.078093","-85.206371"
"287","http://www.fluxregina.ca/flux/home.html","2251 McTavish St., Regina, SK","(306) 541-5807","Flux CrossFit","50.4429506","-104.6340214"
"289","http://crossfitintensify.com/","1485 Mohawk Blvd, Springfield, OR","(541) 337-5627","CrossFit Intensify","44.0586412","-123.0002985"
"290","http://www.crossfitom.com","Hemen Motors, Kishor Kumar Ganguly lane, Juhu Tara road, Mumbai, Maharashtra","061449586967","CrossFit OM","19.7514798","75.7138884"
"291","http://www.crossfitestespark.com","1755 State Hwy 66, Estes Park, CO","(970) 227-0499","CrossFit Estes Park","40.361156","-105.555997"
"292","http://www.CrossFitAmsterdam.nl","Karperweg 39, Amsterdam, Amsterdam","+31 6 24 317 826","CrossFit Amsterdam","52.3474614","4.8542324"
"295","http://www.crossfitenergy.com/","1930 N CLEVELAND MASSILLON RD, Akron, OH","(330) 606-0106","CrossFit Energy","41.1879511","-81.6364292"
"296","http://crossfithamilton.net/","92 North Main Street, Building 3A, Windsor, NJ","(609) 915-8516","CrossFit Hamilton","40.247102","-74.575658"
"297","http://www.crossfitnewtown.com","11 Friends Lane   Suite 111, Newtown, PA","(215) 860-9660","CrossFit Newtown","40.2280871","-74.9151152"
"298","http://www.crossfitprime.com/","220 Geiger Rd, Unit 105 & 106, Philadelphia, PA","(215) 873-4571","CrossFit Prime","34.072734","-83.6352986"
"299","http://crossfitanaheim.com/","1731 S Claudina Way, Anaheim, CA","(949) 354-4509","CrossFit Anaheim","33.80528","-117.9012201"
"300","http://crossfitsouthcentralmass.com","28 Hastings St., Unit #3, Mendon, MA","(508) 714-9640","CrossFit South Central Mass","42.103126","-71.556438"
"301","http://dccrossfit.com/","139 Breckinridge Ln, Louisville, KY","(502) 641-2980","Derby City CrossFit","38.251821","-85.65404"
"303","http://www.comalcrossfit.com/","21965 Hwy 46 West, Bulverde, TX","(210) 445-7131","Comal CrossFit","29.795659","-98.444908"
"304","http://www.crossfitrefinery.com/","528 N. Americana Blvd., Boise, ID","(208) 891-7015","CrossFit Refinery","43.6179834","-116.2160228"
"305","http://clearlakecf.squarespace.com/","500 W NASA Pkwy, Suite A, Webster, TX","(832) 385-0085","Clear Lake CrossFit","29.53476","-95.1220923"
"306","http://www.crossfitreaction.com/","85 David C Francis St, Greenville, SC","(207) 590-4422","CrossFit Reaction","34.8474656","-82.3929512"
"307","http://www.crossfitfeelgood.com.au/","1/51 Leighton Place, Hornsby Heights, NSW","61 407 033 841","CrossFit Feel Good","-33.694639","151.114041"
"309","http://www.crossfitirvine.com","1392 McGaw Avenue, Irvine, CA","(714) 263-5093","Crossfit Irvine","33.6987559","-117.8541033"
"310","http://www.TheAthleteLab.com","3225 Country Drive, Little Canada, MN","(612) 770-4322","CrossFit Athlete Lab","45.0412878","-93.1009773"
"311","http://www.crossfitwarrenton.com/","32 S. Second Street, Warrenton, VA","(703) 338-5154","CrossFit Warrenton","38.7125791","-77.7951707"
"312","http://crossfitswaustin.com/","9301 Highway 290W Suite 104, Austin, TX","(512) 292-0549","CrossFit SW Austin","30.2319927","-97.9259027"
"313","http://vagabondcrossfit.com/","15 Hampden Drive, South Easton, MA","(508) 930-8734","Vagabond CrossFit","42.047284","-71.071884"
"314","http://www.crossfitbrasil.com.br","Rua Clélia, 970, Lapa, Sao Paulo","(011)23671837","CrossFit Brasil","-23.5249102","-46.6918541"
"315","http://www.crossfitspartanburg.com/","330 Tenosha Drive, Spartanburg, SC","(410) 271-5910","CrossFit Spartanburg","34.9974855","-81.9814311"
"316","http://www.crossfit-tnt.com","3683 New Town Blvd., Saint Charles, MO","(636) 724-6464","CrossFit TNT","38.8309837","-90.5184245"
"317","http://www.crossfit864.com","213 West Main Street, Clinton, SC","(864) 833-7781","CrossFit 864","34.4734034","-81.8815891"
"319","http://oaklandcountycrossfit.com/","169 W. Clarkston Road, Lake Orion, MI","(248) 613-3528","Oakland County CrossFit","42.766819","-83.243346"
"321","http://www.crossfitepic.com","1545 Willow Creek Dr, Iowa City, IA","(319) 853-8477","CrossFit EPIC","41.641155","-91.5624689"
"323","http://www.crossfiteastcobb.com","4696 Lower Roswell Road Suite 700, Marietta, GA","(404) 459-7388","CrossFit East Cobb","33.964397","-84.414935"
"324","http://www.carportcrossfit.blogspot.com","1901 1st Ave South, Irondale, AL","(205) 527-3133","Carport CrossFit","33.53779781422601","-86.7082145282078"
"325","http://site.coretactix.com/?page_id=352","4140 Tuller Road, Suite 122, Dublin, OH","(614) 336-3780 ext.2","CoreTactix CrossFit","40.1077681","-83.0970407"
"328","http://www.crossfitdurango.com","360 S. Camino Del Rio, Durango, CO","(970) 769-6903","CrossFit Durango","37.252368","-107.87448"
"329","http://www.crossfitoshawa.com","712 Wilson Road S, Oshawa, ON","(905) 447-5682","CrossFit Oshawa","43.8834003","-78.8355721"
"331","http://www.breakingpointcrossfit.com","1153 Pioneer Rd Unit O, Burlington, ON","(416) 827-7175","Breaking Point CrossFit","43.3631879","-79.8015762"
"332","http://www.antiochcrossfit.com","401 Sunset Drive, Suite K, Antioch, CA","(925) 753-7533","Antioch CrossFit","37.9985246","-121.7957039"
"333","http://www.rocklincrossfit.com","4420 Granite Drive, Suite 100, Rocklin, CA","(916) 625-0121","Rocklin CrossFit","38.7966477","-121.2159694"
"334","http://Crossfit180.blogspot.com","906 S State Rd 39, Lebanon, IN","(765) 336-0180","CrossFit 180","40.0274935","-86.4751952"
"336","http://BravoCrossFit.com","145 Palisade Street #L3, Dobbs Ferry, NY","(914) 882-0518","Bravo CrossFit","41.0159539","-73.8754382"
"337","http://www.crossfitotg.com/","3330 Bargaintown Rd, Egg Harbor Township, NJ","(856) 513-5960","CrossFit OTG","39.374425","-74.579071"
"341","http://crossfitupcountrymaui.com/","850 Haliimaile Road, (Hali'imaile) Makawao, HI","(808) 281-6925","CrossFit UpCountry Maui","20.8683688","-156.3404949"
"342","http://www.crossfitws.com","4200 SW Admiral Way, Suite B, Seattle, WA","(509) 670-0150","CrossFit West Seattle","47.5814143","-122.385227"
"343","http://www.crossfitbodym.com","5/213 The Entrance Road Erina, Erina, NSW","(042) 323-7204","CrossFit BodyM","-33.43508","151.385292"
"344","http://www.brazosportcrossfit.com/","607 S Lazy Ln, Clute, TX","(979) 549-6006","Brazosport CrossFit","29.014945","-95.412637"
"345","http://www.challengefitnesscrossfit.com/Challenge_Fitness_CrossFit/Welcome.html","17030 SE 1st St., Suite 101, Vancouver, WA","(360) 901-2721","Challenge Fitness CrossFit","45.6214246","-122.4963829"
"346","http://crossfittracy.com/","4220 Commercial Drive, Suite 18, Tracy, CA","(510) 329-3885","CrossFit Tracy","37.768031","-121.428646"
"348","http://www.crossfitcoronado.com/","160 C. Avenue, Coronado, CA","(281) 851-1613","CrossFit Coronado","32.697193","-117.1717402"
"351","http://www.doublediamondcrossfit.com/","965 59th Avenue #A, Greeley, CO","(970) 302-2024","Double Diamond CrossFit","40.422165","-104.77569"
"353","http://www.crossfitsaratoga.com","8 Woodland Court, Ballston Spa, NY","(518) 884-0671","CrossFit Saratoga","43.028953","-73.853747"
"354","http://crossfitstaugustine.com","1701 Lakeside Avenue, Suite 3, St. Augustine, FL","(904) 806-1937","CrossFit St. Augustine","29.8698751","-81.3295694"
"355","http://www.crossfitsupremacy.com.au","8 Nelson Avenue, Padstow, NSW","+61410646054","CrossFit Supremacy","-33.935997","151.027865"
"356","http://www.crossfitrichmond.com/","116 Murphy Street, Richmond, VIC","(040) 015-1288","CrossFit Richmond","-37.818316","145.009551"
"358","http://www.crossfitrutherford.com","325 West Rutherford Blvd., Murfreesboro, TN","(615) 533-6074","CrossFit Rutherford","35.8192569","-86.3989965"
"359","http://www.crossfitbozeman.com","2308 N 7th Ave, Suite H, Bozeman, MT","(406) 595-4986","CrossFit Bozeman","45.702463","-111.044312"
"360","http://rawcrossfit.ca","19 Laurier Rd., Penetanguishine, ON","(705) 529-9348","RAW CrossFit GB","44.7799938","-79.9124328"
"361","http://www.sfbbcrossfit.com","5150 SW 48th Way #607, Davie, FL","(954) 931-1484","SF CrossFit","26.057387","-80.208882"
"362","http://www.crossfit914.com","12-C West Main Street, Elmsford, NY","(914) 602-6432","CrossFit 914","41.054211","-73.82098"
"363","http://www.crossfitssli.com","1507-2 Smithtown Avenue, Bohemia, NY","(631) 472-1930","Crossfit South Shore L.I.","40.780443","-73.108811"
"364","http://www.saskprohockey.com","184 South Industrial Drive, Bay 7, Prince Albert, SK","(403) 229-0704","Saskpro CrossFit Sports Conditioning","53.1814563","-105.745827"
"365","http://www.titaniumcrossfit.blogspot.com/","823 McPhee Ave, Courtenay, BC","(250) 897-8121","Titanium CrossFit","49.6854823","-125.0036927"
"366","http://www.transformcrossfit.com","1589 Reed Rd, Unit 9-10, Pennington, NJ","(609) 851-3693","Transform CrossFit","40.298278","-74.797619"
"367","http://www.southernxfit.com","1/10 Whyalla St, Willetton, WA","+61 424606173","Southern CrossFit","-32.041163","115.881592"
"368","http://www.crossfitmadtown.com/","7576 Lisa Lane, Middleton, WI","(608) 282-5610","CrossFit Madtown","43.1090227","-89.5116049"
"369","http://Crossfit-lifestyle.com","18420 Hart St, Reseda, CA","(818) 705-6500","CrossFit LifeStyle","34.197107","-118.534158"
"370","http://www.crossfitptc.com","303 Kelly Drive, Suite 8 and 9, Peachtree, GA","(770) 617-1307","CrossFit PTC","33.3800229","-84.5791698"
"371","http://www.friscocrossfit.com","9410 Dallas Pkwy, #150, Frisco, TX","(469) 879-4158","Frisco CrossFit","33.156296","-96.839399"
"372","http://www.crossfitoslo.no","Nydalsveien 17, Oslo, Oslo","22 71 80 71","CrossFit Oslo","59.9478409","10.7645659"
"373","http://www.CrossFitEwaBeach.com","2045 Lauwiliwili Street, Building 1, Kapolei, HI","(843) 263-4849","KSAC CrossFit","21.323269235787745","-158.09053663016357"
"374","http://crossfithorizons.blogspot.com/","Unit 2, 34 Rural Drive, Sandgate, NSW","61 02 40238696","CrossFit Horizons","-32.876737","151.7100351"
"376","http://www.crossfitoverdrive.com","7371 Elmbridge Way, Richmond, BC","(604) 278-4848","CrossFit Overdrive","49.1720297","-123.1435149"
"377","http://www.crossfitcheshire.com/","360 Sandbank Road, Cheshire, CT","(203) 239-0351","CrossFit Cheshire","41.536412","-72.90258"
"378","http://www.crossfitminneapolis.com","131 Chestnut Ave, Suite 110, Minneapolis, MN","(507) 581-2087","CrossFit Minneapolis","44.976942","-93.2841694"
"379","http://movementforlife.typepad.com/crossfitmovementforlife","805 Aerovista Place, Ste 104, San Luis Obispo, CA","(805) 440-6065","CrossFit Movement For Life","35.2434883","-120.6403331"
"380","http://www.crossfitcoolumbeach.com.au","Lysaght, Coolum Beach, QLD","(040) 775-2489","Coolum Beach CrossFit","-26.5206406","153.0593017"
"382","http://www.crossfitzuerich.ch","Letzigraben 165, Zurich, Switzerland","0041765694350","Reebok CrossFit Zurich","47.3737119","8.4953163"
"383","http://www.pittsburghkarate.com/Programs/Object/Records/CMSPageObject345206247056000","5440 Centre Avenue, Pittsburgh, PA","(412) 621-5425","CrossFit Shadyside","40.4563849","-79.9366602"
"384","http://www.outeredgecrossfit.com/","16000 Mill Creek Blvd #112, Mill Creek, WA","(206) 290-8136","Outer Edge CrossFit","47.8531156","-122.2211642"
"385","http://concord-crossfit.com/","145 Woodrow Ave, Ste C, Modesto, CA","(925) 209-7400","Concord CrossFit","37.685809","-120.995417"
"386","http://www.crossfitroots.com","2406 30th Street, Boulder, CO","(303) 578-8455","CrossFit Roots","40.0249594","-105.2535723"
"387","http://www.crossfitamplify.com","1962 Ohio St, Lisle, IL","(630) 532-4095","CrossFit Amplify","41.7911607","-88.0898191"
"388","http://crossfit100.com/","4927 N Lydell Avenue, Glendale, WI","(414) 313-1427","CrossFit 100","43.106513","-87.912284"
"389","http://","Holtagordum, 104 Reykjavik, ","(354) 499-1980","Reebok CrossFit Katla","64.1429157","-21.8600061"
"390","http://www.hookladdercrossfit.com","18814 72nd Ave s, Kent, WA","(206) 498-0785","Hook & Ladder CrossFit","47.4340451","-122.2439878"
"392","http://karmacrossfit.com","1053 N Aviation Blvd., Manhattan Beach, CA","(310) 500-8127","Karma CrossFit","33.886248","-118.378617"
"393","http://www.aspencrossfit.com","210 AABC, Suite N, Aspen, CO","(970) 948-4605","Aspen CrossFit","39.218938563686855","-106.85877799987793"
"394","http://www.crossfitboucherville.ca/","684-2 Chemin du Lac, Boucherville, QC","(514) 953-3554","CrossFit Boucherville","45.6125148","-73.4415579"
"395","http://www.crossfitcambridge.ca","54 Guelph Avenue unit 5-7, Cambridge, ON","(519) 240-6890","CrossFit Cambridge","43.4318645","-80.3111108"
"396","http://crossfitstronghold.com/","2176 Chatsworth Blvd., San Diego, CA","(619) 674-4677","CrossFit Stronghold","32.7392745","-117.2281722"
"397","http://crossfitdecatur.com/","701 Church Street, Decatur, GA","(404) 370-1763","CrossFit Decatur","33.7787335","-84.2947096"
"398","http://www.crossfitnorthfulton.com/","700 Hembree Pl, Suite E, Roswell, GA","(404) 993-1494","CrossFit North Fulton","34.0595659","-84.319708"
"399","http://www.crossfitnorthatlanta.com/","1730 Taylor Street NW, Atlanta, GA","(404) 355-4500","CrossFit North Atlanta","33.801633","-84.42109"
"400","http://www.crossfitresults.net","4400 N 48th St, Ste 7, Lincoln, NE","(913) 775-3287","CrossFit Results","40.8573736","-96.6529762"
"401","http://www.crossfittx.com/","4674 Priem Lane STE 408, Pflugerville, TX","(512) 251-6402","CrossFit Texas","30.494816","-97.588275"
"402","http://xfitchf.wordpress.com/","1410 Sevierville Rd, Maryville, TN",,"CrossFit CHF","35.758016","-83.955296"
"403","http://www.crossfitlethbridge.typepad.com/","1916 2nd Ave. S., Lethbridge, AB","(403) 382-1060","CrossFit Lethbridge","49.6974983","-112.8132186"
"404","http://www.crossfitguelph.com","340 Edinburgh RD North, Unit C, Guelph, ON","(519) 993-2119","CrossFit Guelph","43.5503503","-80.2761559"
"407","http://www.crossfitbismarck.com","1422 Industrial Drive, Unit B, Bismarck, ND","(701) 223-6979","CrossFit Bismarck","46.8201539","-100.7311743"
"408","http://www.xplorecrossfit.com","1223 Western Ave, Seattle, WA","(206) 456-6236","Xplore CrossFit","47.60618958930356","-122.33927838734132"
"409","http://www.crossfitsmyrna.com/","1875 Mitchell Road, Mableton, GA","(770) 354-1175","CrossFit Smyrna","33.8162358","-84.4995032"
"411","http://jsacrossfit.com","187 Parker Ave, Rt. 71 Suite M, Manasquan, NJ","(732) 965-2006","JSA CrossFit","40.126226","-74.049304"
"412","http://www.saanichpeninsulacrossfit.net/","12-2075 Henry Avenue, Sidney, BC","(250) 665-7112","Saanich Peninsula CrossFit","48.6530027","-123.4133164"
"413","http://crossfitstowevt.blogspot.com/","75 Weeks Hill Road, Stowe, VT","(802) 238-0903","CrossFit Stowe","44.474556","-72.690102"
"414","http://crossfiteastbay.com","66 Franklin St. Suite 100B, Oakland, CA","(510) 910-2919","CrossFit East Bay","37.7943721","-122.2757206"
"416","http://CrossFitBirmingham.com","157 Resource Center Pkwy, Ste. 103, Birmingham, AL","(205) 396-4523","CrossFit Birmingham","33.42563","-86.70798"
"417","http://badlandsunderground.blogspot.com/","557 2nd St. SE, Medicine Hat, AB","(403) 979-1789","Badlands CrossFit","50.0402631","-110.677052"
"418","http://www.crossfitvalleypark.com","814 St. Louis Ave., Valley Park, MO","(314) 322-1040","CrossFit Valley Park","38.5526018","-90.4776962"
"419","http://www.cfbham.com","122 Ohio Street  #101, Bellingham, WA","(360) 389-3048","CrossFit Bellingham","48.7551188","-122.474099"
"420","http://www.bizfitnation.com","115 Gashouse Lane, Great Barrington, MA","(413) 822-3069","CrossFit Great Barrington","42.1998853","-73.3608495"
"421","http://titanfit.com/","7109 Girls School Ave., Indianapolis, IN","(312) 543-4372","Titanfit","39.74649","-86.2851344"
"422","http://www.tbccrossfit.com/","4553 North Loop 1604 West, San Antonio, TX","(210) 201-0068","TBC CrossFit","29.6090205","-98.5153877"
"423","http://www.crossfitbattleready.com/","3257 35th Ave, Evans, CO","(970) 405-7091","CrossFit Battle Ready","40.384217","-104.735441"
"424","http://www.raw-training.com/","2330 Wildwood Road, Gibsonia, PA","(724) 799-2288","CrossFit R.A.W.","40.5939456","-79.9785541"
"425","http://www.crossfitknoxville.com/","9355 Kingston Pike, Ste 21, Knoxville, TN","(865) 356-9000","CrossFit Knoxville","35.9105519","-84.0928272"
"426","http://www.crossfitcapecod.com/","7 North Market Street Mashpee Commons, Mashpee, MA","(508) 332-0058","CrossFit Cape Cod","41.610807","-70.469832"
"427","http://www.teamcrossfit.com/","20942 Victory Blvd., Woodland Hills, CA","(818) 992-7502","Team CrossFit","34.18818300553073","-118.59010819827267"
"428","http://www.cactuscrossfit.com/","7018 East Indian School Road, Scottsdale, AZ","(480) 463-4172","Cactus CrossFit","33.4949284","-111.9297592"
"429","http://www.gatorcrossfit.com/","6020 NW 4th Place Suite G, Gainesville, FL","(352) 359-0889","Gator CrossFit","29.656585","-82.4078"
"431","http://www.crossfitranchocucamonga.com/","8333 Rochester Avenue #110, Rancho Cucamonga, CA","(909) 260-6780","CrossFit Rancho Cucamonga","34.1018822","-117.5457598"
"432","http://www.CrossFitTruckee.com","11357-C Deerfield Dr., Truckee, CA","(530) 587-3226","CrossFit Truckee","39.318361","-120.208216"
"434","http://www.b4cfitnesscentre.blogspot.com/","1st Floor, Orion Building, Corner 1st Avenue and Boeing Road East, Edenvale, Gauteng","27829909474","CrossFit B4C","-26.1600409","28.1576409"
"435","http://www.crossfitgenesis.com/","215 Kenroy Lane, Roseville, CA","(916) 543-2924","CrossFit Genesis","38.732699","-121.295548"
"436","http://crossfitbath.com/","Unit 8 Wansdyke Business Center, Bath, England","07971604677","CrossFit Bath","51.373809","-2.3771442"
"437","http://www.crossfitdk.dk","Store Kongensgade 54, 3rd Floor, Copenhagen, Copenhagen","004561712930","CrossFit Denmark","55.6853542","12.5881195"
"438","http://crossfitbillings.com/","1428 Grand Avenue, Billings, MT","(406) 672-7580","CrossFit Billings","45.7840773","-108.5524354"
"439","http://www.crossfitmonrovia.com","143 West Maple Avenue, Monrovia, CA","(714) 390-9556","CrossFit Monrovia","34.1415048","-118.0020794"
"440","http://northmaconcrossfit.com/","4650 Forsyth Road Suite B, Macon, GA","(478) 319-6064","North Macon CrossFit","32.873223","-83.709569"
"441","http://www.21crossfit.com","1408 Christian Ave, Suite 16, Durham, NC","(919) 351-9348","21 CrossFit","36.0238003","-78.950243"
"443","http://www.crossfitsport.is/","Dalsmara 9-11, Kopavogur, n/a","(354) 564-1950","CrossFit Sport","64.09169","-21.853769"
"444","http://www.crossfithanford.com","730 Vaughn, Ste. B, Hanford, CA","(559) 587-3090","CrossFit Hanford","36.326853","-119.656636"
"445","http://www.crossfitskopje.com/","ul. Viktor Igo br.10/20, Skopje, Skopje","38970369802","CrossFit Skopje","42","21.4333333"
"447","http://www.crossfitextremefitness.com","493 South Stone Street Ave, Rockville, MD","(301) 424-0445","CrossFit Extreme Fitness","39.0839973","-77.1527578"
"448","http://www.crossfitgps.com/","74 Millpond Pkwy, Monroe, NY","(845) 913-8048","CrossFit GPS","41.3333047","-74.1910058"
"449","http://www.canyoncrossfit.com","22343 East La Palma Avenue Suite 112, Yorba Linda, CA","(714) 348-6256","Canyon CrossFit","33.8824698","-117.7396768"
"450","http://crossfitcarsonvalley.com","1291 Industrial Qtr, Suite A, Gardnerville, NV","(775) 781-7718","CrossFit Carson Valley","38.9412959","-119.7496216"
"451","http://crossfitlosaltos.com/","600 Fremont Ave, Los Altos, CA","(650) 947-9831","CrossFit Los Altos","37.3623636","-122.0997979"
"452","http://www.windycitycrossfit.com/","4043 N. Ravenswood, #106, Chicago, IL","(773) 895-1378","Windy City CrossFit","41.955627","-87.673675"
"453","http://www.crossfitniagara.ca","25 Commerce Place, Unit 2, St. Catharines, ON","(905) 964-2433","CrossFit Niagara","43.1444368","-79.2689208"
"457","http://www.mscrossfit.com/","853 Wilson Drive, Ridgeland, MS","(601) 720-9884","Mississippi CrossFit","32.4057312","-90.1381099"
"458","http://www.spccrossfit.com/","7311 State, Route 43, Kent, OH","(330) 671-0814","SPC CrossFit","41.189614","-81.345586"
"460","http://crossfit-bristol.com/","Clifton College Sports Centre Gutherie Rd, Clifton, Bristol","078 1234 6025","CrossFit Bristol","51.4615492","-2.6218919"
"461","http://www.sectcrossfit.com","1031 Norwich, New London Turnpike, Unit #25, Uncasville, CT","(860) 639-6484","SECT CrossFit","41.453309","-72.105665"
"462","http://www.foundationcrossfit.com/","1415 12th Ave, Seattle, WA","(206) 299-0225","Foundation CrossFit","47.613588","-122.3168413"
"463","http://www.nexusstockholm.se/crossfit","Drottningholmsvägen 185 Bromma/Alvik, Stockholm, ","08-694 89 00","CrossFit STHLM (Stockholm)","59.3335297","17.97295919999999"
"464","http://pioneervalleycrossfit.com","220 Russell St, Hadley, MA","(646) 593-3090","Pioneer Valley CrossFit","42.3457196","-72.5753973"
"465","http://www.crossfitclassic.com/","700 South Buckley Road, Aurora, CO","(303) 880-4641","CrossFit Classic","39.7037199","-104.7901569"
"466","http://deltacrossfit.com","29 Spruce Street, Brentwood, CA","(925) 783-6996","Delta CrossFit","37.937779","-121.695307"
"468","http://corpsfitness.net/","220 Park Rd North Bldg 7, Wyomissing, PA","(877) 498-8620","CrossFit Berks","40.339446","-75.958577"
"469","http://crossfithove.blogspot.com/","unit 9, 64-78 Davigdor Rd, Hove, England","01903821020","Crossfit Hove","50.8312809","-0.1567397"
"470","http://www.crossfitmilpitas.com/","1090 S Milpitas Blvd., Milpitas, CA","(408) 825-3777","CrossFit Milpitas","37.4177128","-121.8886011"
"471","http://www.crossfitloveland.com/","1410 East 11th Street, Loveland, CO","(970) 203-0759","CrossFit Loveland","40.402555","-105.05714"
"472","http://www.crossfitkinnick.com","166 S 2nd Ave, Ste C, Upland, CA","(909) 983-4744","CrossFit Kinnick","34.093328","-117.648508"
"473","http://www.crossfitgoldcoast.com.au/","17 Strathaird Road, Bundall, QLD","+61431169496","CrossFit Reebok Gold Coast","-28.007596","153.401467"
"474","http://www.crossfitadelaide.com/","4/1 Barrpowell Street, Welland, SA","61404317353","CrossFit Adelaide","-34.9101321","138.5608442"
"476","http://www.redshedcrossfit.com/","20 Continental Drive, Mount Olive, NJ","(973) 448-9200","RedShed CrossFit","40.9043909","-74.715265"
"477","http://www.crossfitkingston.blogspot.com/","718 Fortune Cresent, Kingston, ON","(613) 453-7486","CrossFit Kingston","44.2760906","-76.565494"
"479","http://www.crossfitsolano.com/","1052 Horizon Dr, #A, Fairfield, CA","(707) 373-2224","CrossFit Solano","38.273706","-122.015112"
"480","http://www.crossfitmanassas.com/","9411 Center Point Lane, Manassas, VA","(703) 447-4576","CrossFit Manassas","38.7515863","-77.4882827"
"481","http://www.crossfitwinstonsalem.com/","2529 Viceroy Dr, Winston-Salem, NC","(336) 391-0362","CrossFit Winston-Salem","36.044862","-80.324916"
"482","http://www.CrossfitMeridian.net","345 S Adkins Way, Meridian, ID","(208) 861-8148","CrossFit Meridian","43.60158","-116.377848"
"483","http://crossfitaustin.com/","8708 South Congress, Suite A180, Austin, TX","(806) 679-7519","CrossFit Austin","30.171510614099663","-97.7872742355957"
"484","http://nrgcrossfit.com/","1000 W Beardsley Street Suite B, Salt Lake City, UT","(303) 857-8866","CrossFit NRG","40.717645","-111.920081"
"485","http://www.crossfitnwt.com/","6800 North Camino Martin, #106, Marana, AZ","(520) 955-2228","CrossFit Northwest Tucson","32.330652","-111.055965"
"486","http://crossfitorangeny.com/","31 St. John Street, Goshen, NY","(718) 812-1076","CrossFit Orange NY","41.4036193","-74.3239954"
"487","http://www.crossfitseriousfitness.com/","14 E 14th St, Anniston, AL","(256) 405-8579","CrossFit Serious Fitness","33.6623414","-85.8296468"
"488","http://www.crossfitss.com/","7014 AC Skinner Parkway, Suite 220, Jacksonville, FL","(904) 296-4552","CrossFit SS (South Side)","30.246602","-81.580782"
"489","http://crossfitlittleton.net/","4731 S Santa Fe Circle #1, Englewood, CO","(720) 201-6054","CrossFit Littleton","39.6300687","-105.0100944"
"491","http://boisecrossfit.com/","9165 W Chinden Blvd, Suite 100, Boise, ID","(208) 863-4741","Boise CrossFit","43.654732","-116.296128"
"492","http://www.crossfitnwa.com/","500 S Main Street, Bentonville, AR","(479) 715-6053","CrossFit NWA","36.3728538","-94.2088172"
"493","http://www.daltonscrossfit.net/","1160 Dewey Way, Suite E, Upland, CA","(909) 982-9300","Dalton's CrossFit","34.1083411","-117.6939133"
"494","http://crossfitchristchurch.com/","132 Vagues Road, Papanui, Christchurch","64 508 276 773","CrossFit Christchurch","-43.4851341","172.6084935"
"495","http://www.crossfitworks.com/","244 S. Tucson Blvd, Tucson, AZ","(520) 344-7358","CrossFit Works","32.2196527","-110.9351556"
"496","http://hammercrossfit.com/","8615 W. Kelton Lane, Suite 301, Peoria, AZ","(623) 215-5412","Hammer CrossFit","33.6352289","-112.2424724"
"497","http://www.Crossfitbigisland.com","1717 Kamehameha Ave, Hilo, HI","(808) 990-3863","CrossFit Big Island","19.722802","-155.06485"
"499","http://www.crossfitdental.com/","2 Cambuslea Road, Ayr, South Ayrshire","07889823211","CrossFit Ayr","55.47521","-4.6158223"
"500","http://www.hitechgym.com/crossfitclinton/","1205 Clinton Industrial Park Road, Clinton, MS","(601) 717-2519","CrossFit Clinton","32.3569436","-90.3441794"
"501","http://CFMemphis.com","7740A Trinity Road, Suite 109, Cordova, TN","(901) 246-9451","CrossFit Memphis","35.141277","-89.804532"
"502","http://www.crossfitskybox.com","100 Napa Junction Road, American Canyon, CA","(707) 554-1091","CrossFit Sky Box","38.186765","-122.265251"
"503","http://www.bodyarmorsa.com/","2411 Broadway, Ste B, San Antonio, TX","(210) 826-7070","Body Armor CrossFit","29.448867","-98.475197"
"504","http://roaringforkcrossfit.com/","402 Park Avenue Suite B, Basalt, CO","(970) 379-6309","Roaring Fork CrossFit","39.3737033","-107.0785756"
"505","http://www.crossfitnewengland.com","15 Tech Circle, Natick, MA","(781) 413-5133","CrossFit New England","42.3148058","-71.3347542"
"506","http://crossfitkoncepts.typepad.com/","16720-16722 Oakmont Ave, Gaithersburg, MD","(301) 404-2571","CrossFit Koncepts","39.1308228","-77.1748473"
"507","http://www.inhealthservices.com.au/index.htm","74 Mary St., Unley, SA","(618) 351-9762","CrossFit South Australia","-34.9484986","138.6018885"
"508","http://www.carolinacrossfit.com","1825 Laurel St, Columbia, SC","(803) 479-6966","Carolina CrossFit","34.0131159","-81.026475"
"510","http://www.crossfitjax.com/","2593 Mayport Rd #105, Atlantic Beach, FL","(904) 853-6843","CrossFit Jax","30.358802","-81.412425"
"511","http://crossfit.athletesarena.com/","1019 Broad Stone Rd, Irmo, SC","(803) 750-9036","CrossFit Athletes Arena","34.1414741","-81.2375883"
"512","http://www.flatironscrossfit.com/","3640 Walnut St, Boulder, CO","(303) 517-7114","Flatirons CrossFit","40.018804","-105.247039"
"513","http://gzcrossfit.com/","2601 Venture Drive, Suite 120, Norman, OK","(405) 701-8400","Ground Zero CrossFit (GZ)","35.269834","-97.480617"
"514","http://www.motorcitycrossfit.com","8200 Irving Rd, Sterling Heights, MI","(586) 944-4925","Motor City CrossFit","42.54529","-83.027088"
"515","http://crossfitdahlonega.com","162 Lumpkin County Parkway Suite 10, Dahlonega, GA","(706) 864-4075","CrossFit Dahlonega","34.444712","-83.9881597"
"516","http://www.crossfitcamas.com","19005 SE 34th Street, #106, Vancouver, WA","(360) 833-0964","CrossFit Camas","45.5966305","-122.4802576"
"517","http://www.naturalhighcrossfit.ca/","Southridge Village RPO 40027, Okotoks, AB","(403) 995-3602","Natural High CrossFit","50.7180574","-113.9837065"
"518","http://www.agogegym.com/","19400 144th Ave NE, Unit A, Woodinville, WA","(206) 949-2265","Agoge CrossFit Woodinville","47.7683727","-122.147728"
"519","http://www.pottstownkarate.com","371 Circle of Progess, Pottstown, PA","(484) 302-6188","CrossFit Pottstown","40.267258","-75.664107"
"520","http://crossfitschaffhausen.ch/","Ebnatstrasse 65, Schaffhausen, Schaffhausen","(079) 279-8197","CrossFit Schaffhausen","47.7074656","8.6440084"
"522","http://Forgedfit.com","6542 Westfield Blvd, Suite 2, Indianapolis, IN","(317) 898-4281","CrossFit Broad Ripple","39.8748524","-86.1412424"
"523","http://crossfitrehoboth.com/","37395 Oyster House Rd, Rehoboth Beach, DE","(302) 227-3636","CrossFit Rehoboth","38.7080781","-75.0926342"
"524","http://www.crossfitsalem.net/","3589 Fairview Industrial Dr. S, Salem, OR","(503) 931-7727","CrossFit Salem","44.9029091","-123.0161986"
"526","http://www.legendcrossfit.com/","115 Commerce St, Suite A, McCall, ID","(208) 630-3870","Legend CrossFit","44.895606","-116.092713"
"527","http://crossfitblacksburg.com/","112 Country Club Drive SW, Blacksburg, VA","(540) 320-0756","CrossFit Blacksburg","37.2177999","-80.4029"
"529","http://www.pacpersonaltraining.com/subs/services_crossfit.html","2074 NW Aloclek Dr. S. 411, Hillsboro, OR","(503) 747-7317","CrossFit Hillsboro","45.5344775","-122.896378"
"532","http://www.crossfitempower.com/","3321 Dunbar Street, Vancouver, BC","(604) 446-4745","CrossFit Empower","49.2571016","-123.1853306"
"533","http://www.crossfitsweatshop.com/","1401 Autocenter Drive, Suite A, Walnut Creek, CA","(925) 818-1908","CrossFit Sweat Shop","37.922684","-122.0620525"
"535","http://www.crossfitdowntownwinston.com/","480 West End Blvd, Winston-Salem, NC","(336) 310-5018","CrossFit Downtown Winston","36.101155","-80.260637"
"536","http://www.upstatecrossfit.net","341 -A Miller Rd., Mauldin, SC","(864) 449-8945","Upstate CrossFit","34.7920609","-82.303861"
"538","http://www.crossfitama.com/","6900 Canyon Dr, Suite 220, Amarillo, TX","(806) 367-7282","CrossFit Amarillo","35.1349665","-101.8971934"
"539","http://www.crossfitcapop.com/","2242A, Rue Lariviere, Montreal, QC","(514) 596-1010","CrossFit CapOp","45.5300877","-73.5572525"
"540","http://www.thecrossfitbox.com/","The CrossFit Box 10909 Prospect Rd, Strongsville, OH","(440) 371-1261","CrossFit Box","41.3317132","-81.8576572"
"541","http://crossfitnaperville.com/","800 Frontenac Road, Aurora, IL","(630) 452-5148","CrossFit of Naperville","41.742651","-88.229667"
"542","http://www.crossfitwellington.com/","11596 Pierson Road, Wellington, FL","(561) 290-1639","CrossFit Wellington","26.6365876","-80.2296498"
"543","http://www.crossfittrussville.com/","139 Railroad Street, Trussville, AL","(205) 317-9526","CrossFit Trussville","33.6190696","-86.6055847"
"544","http://www.crossfitlaval.ca","1952 rue Le Chatelier, Laval, QC","(450) 687-7348","CrossFit Laval","45.5888149","-73.7560904"
"546","http://crossfiteverett.com/","1302 Hewitt Ave, Unit E102, Everett, WA","(425) 328-6941","CrossFit Everett","47.9792225","-122.2126558"
"547","http://www.crossfitvelocity.co.uk/","Unit 4 Celtic Trade Park, Bruce Road, Fforestfach, Swansea, Wales","447525018728","Reebok CrossFit Velocity","51.6446661","-3.9975368"
"548","http://crossfitancaster.com","1412  Sandhill Drive, Ancaster, ON","(905) 648-6555","CrossFit  Ancaster","43.1904582","-80.0313985"
"549","http://sincitycrossfit.com","930 Wigwam Parkway, Henderson, NV","(702) 218-9864","SinCity CrossFit","36.0349602","-115.0252615"
"550","http://www.crossfittallahassee.com/","504 Capital Circle SE, #8, Tallahassee, FL","(850) 566-3269","CrossFit Tallahassee","30.438213","-84.228615"
"551","http://www.crossfitunreal.com","32 Stubbs Street, Kensington, VIC","6130438047174","CrossFit Unreal","-37.7900006","144.9355728"
"552","http://www.crossfittheden.com/","943 Automation Way, Suite B, Medford, OR","(541) 292-2792","CrossFit The Den","42.362293","-122.878417"
"553","http://www.ultimatecrossfit.com/","210 Rampart St Suite F, Charlotte, NC","(704) 331-4815","Ultimate CrossFit","35.2088455","-80.8638599"
"554","http://www.desertcrossfit.typepad.com/","73-605 Dinah Shore Dr, Ste 1400N, Palm Desert, CA","(760) 533-0642","Desert CrossFit","33.7996392","-116.3819564"
"557","http://www.fullforcecrossfit.com/","26330 Diamond Place, Suite 150, Santa Clarita, CA","(661) 799-7800","Full Force CrossFit","34.4092797","-118.5074186"
"558","http://www.spartanperformance.com","5006 Veteran's Highway, Holbrook, NY","(631) 747-6038","CrossFit Suffolk","40.7766351","-73.0715639"
"559","http://www.crossfitcoastal.com","5726 Market St., Wilmington, NC","(910) 632-4985","CrossFit Coastal","34.24928","-77.8602065"
"560","http://crossfit-hattiesburg.com/","28 Commercial Warehouse Dr, Ste 3, Hattiesburg, MS","(601) 310-8821","CrossFit Hattiesburg","31.1943721","-89.2062985"
"561","http://www.crossfituv.com","376 Commerce Loop, Orem, UT","(801) 900-3480","CrossFit Utah Valley","40.290704","-111.7272523"
"562","http://www.crossfitcopenhagen.dk/","Tagensvej 168 2. Th., Copenhagen N, Copenhagen","004561304585","CrossFit Copenhagen","55.7089412","12.5391417"
"563","http://www.nextgenerationcrossfit.com","7709 E 42nd Place Unit 116, Tulsa, OK","(918) 850-5069","Next Generation CrossFit","36.102789","-95.8898449"
"564","http://www.crossfitlondon.ca","353 Bathhurst St, London, ON","(519) 518-3369","CrossFit London ON","42.9820609","-81.2404877"
"565","http://www.crossfiteastcounty.com","1810 John Towers Ave., Suite B, El Cajon, CA","(619) 709-1276","CrossFit East County","32.8204325","-116.979642"
"566","http://www.crossfittroy.com/","300 Peters Ave., Troy, OH","(937) 216-7387","CrossFit Troy","40.030022","-84.212396"
"567","http://www.rippedfitnesscenter.com","5983 NW 102nd Avenue, Doral, FL","(305) 418-8855","CrossFit Miami","25.8277771","-80.3619967"
"568","http://www.cynergycrossfit.com/","23 Commercial Waye, Hanson, MA","(617) 962-0257","Cynergy CrossFit","42.0512918","-70.9044274"
"569","http://www.crossfitgeneseo.com","3339 Cuylerville Rd., Geneseo, NY","(585) 233-4717","CrossFit Geneseo","42.7772697","-77.8351563"
"570","http://www.crossfitjackson.com/","101 Executive Dr., Jackson, TN","(731) 215-0130","CrossFit Jackson","35.6706053","-88.8249509"
"571","http://crossfit-fortbragg.com/","425 W. Manchester, Spring Lake, NC","(919) 622-5370","CrossFit Fort Bragg","35.1901116","-78.9971703"
"572","http://www.crossfitlorton.com","7402 A Lockport Place, Lorton, VA","(571) 332-1995","CrossFit Lorton","38.7162452","-77.1969159"
"573","http://www.crossfitsnohomish.com","16326 SR 9 SE, Snohomish, WA","(425) 337-2904","CrossFit Snohomish","47.848639","-122.118133"
"574","http://www.crossfitsv.com","1345 The Alameda, San Jose, CA","(408) 275-0440","CrossFit Silicon Valley (SV)","37.33233","-121.913564"
"575","http://www.crossfitape.com","2811 Broadmore Street, Klamath Falls, OR","(541) 885-7894","CrossFit A.P.E. (Ape)","42.202346","-121.753607"
"576","http://www.crossfitsimi.com","1816 Angus Ave., Simi Valley, CA","(805) 432-5224","CrossFit Simi Valley","34.270824","-118.701855"
"577","http://thecellfitness.com.au/","2/441 Yangebup Road, Cockburn Central, WA","(61)(08)94662542","The Cell CrossFit","-32.121617","115.839594"
"578","http://www.madcrossfit.com","58 Victoria Street, Petone, Lower Hutt","(021) 266-4264","MaD CrossFit","-41.2226249","174.8752893"
"579","http://www.crossfitlions.com","1212 Welch Street, North Vancouver, BC","(604) 839-0296","CrossFit Lions","49.3177487","-123.1083834"
"580","http://www.crossfitnorwest.com/","336-338 Old Northern Road, Castle Hill, NSW","(041) 301-1677","CrossFit NorWest","-33.730211","151.016638"
"581","http://crossfitavalanche.com/","7011 National Avenue, Unit 4, Tahoe Vista, CA","(530) 546-7703","CrossFit Avalanche","39.2470298","-120.0486259"
"582","http://www.naturalstrengthfitness.com/","961 Laval Cres. - Unit D, Kamloops, BC","(250) 318-0672","Natural Strength CrossFit","50.6604066","-120.3656847"
"583","http://www.gardinerathletics.com/what-is-crossfit/","19 Osprey Lane, Gardiner, NY","(845) 419-2177","Gunx CrossFit","41.691289","-74.146825"
"584","http://www.headhunterscrossfit.com/","3740 Resource Dr. Ste C, Tuscaloosa, AL","(334) 507-2326","HeadHunters CrossFit","33.17478","-87.556606"
"588","http://www.crossfitxfactor.com","2202 NW Roosevelt Street, Portland, OR","(503) 830-9700","CrossFit X-Factor","45.5382281","-122.6970459"
"590","http://www.crossfitsanelijo.com/","3146 Tiger Run Court Suite 120, Carlsbad, CA","(760) 805-7562","CrossFit San Elijo","33.1311168","-117.2406011"
"591","http://www.iamcrossfit.com","1401 NW 88th Avenue, Doral, FL","(786) 999-5497","I AM CrossFit","25.7863543","-80.338887"
"592","http://www.crossfitnorthfortcollins.com/","1831 East Mulberry, Fort Collins, CO","(970) 420-5566","CrossFit North Fort Collins","40.5807999","-105.0436827"
"593","http://www.centralbuckscrossfit.com/","1800  Mearns Rd, Unit JJ, Warminster, PA","(215) 262-9789","Central Bucks CrossFit","40.2067884","-75.099807"
"594","http://www.crossfithighvoltage.com/","219 West Palm, Burbank, CA","(818) 848-8804","CrossFit High Voltage","34.1766099","-118.317099"
"595","http://www.corecrossfit.com/","825 N 7th Street, Phoenix, AZ","(707) 338-3449","Core CrossFit","33.457334","-112.064827"
"596","http://crossfitlosgatos.com","1000 Jacklin Road, Milpitas, CA","(408) 605-4840","CrossFit Los Gatos","37.4461414","-121.892424"
"599","http://www.cincinnatistrength.com/","4575 Steel Place, Cincinnati, OH","(513) 910-5050","CrossFit Steel Place","39.15856","-84.4157819"
"600","http://www.crossfitinvictus.com","1446 Columbia Street, San Diego, CA","(619) 231-3000","CrossFit Invictus","32.7204421","-117.1675182"
"601","http://www.crossfitsiouxfalls.com/","3505 S Phillips Ave, Sioux Falls, SD","(605) 274-3474","CrossFit Sioux Falls","43.5134974","-96.7262248"
"602","http://www.wccrossfit.com/","818 Jackson St., Unit E, Napa, CA","(707) 337-9441","Wine Country CrossFit","38.307758","-122.2882886"
"604","http://crossfitouterbanks.com/blog.htm","906 Croatan Highway, Kill Devil Hills, NC","(252) 202-1878","CrossFit Outer Banks","36.006687","-75.65746"
"605","http://crossfitbrea.com/","4080 N. Palm St, Suite 802, Fullerton, CA","(714) 738-1717","CrossFit Brea","33.9213028","-117.9243328"
"606","http://www.crossfitwc.com/","917 Old Fern Hill Road, West Chester, PA","(610) 864-8522","CrossFit West Chester","39.980029","-75.589538"
"607","http://www.pushmore.com.my/","B-GF-23&23A, Block B, Merchant Square, No. 1 Jln Tropicana Selatan 1, PJU 3, Petaling Jaya, Selangor","6012-3900684","CrossFit Malaysia","3.133622443819834","101.59871399402618"
"608","http://crossfit-strength.com/","1319 Central Ave, Charlotte, NC","(704) 771-6679","CrossFit Strength","35.2208785","-80.8163572"
"609","http://www.heroescrossfit.com/","13010 Parmer Lane, Suite 500, Cedar Park, TX","(512) 410-4376","Heroes CrossFit","30.533911","-97.780584"
"610","http://www.crossfit-springfield.com","1900 W Sunset, BLDG B Suite 100, Springfield, MO","(417) 881-7855","CrossFit Springfield","37.165428","-93.3179229"
"611","http://www.CrossFitFrederick.com","5119 Pegasus Court Suite B, Frederick, MD","(240) 651-5981","CrossFit Frederick","39.371166","-77.4083372"
"612","http://www.crossfitsantacruzcentral.com","2650 Research Park Drive, Soquel, CA","(831) 331-9174","CrossFit Santa Cruz Central","36.9835868","-121.9682698"
"613","http://www.crossfitoffthegrid.com","1165 N Truckahoe Rd, Williamstown, NJ","(609) 501-2383","CrossFit Off the Grid","39.69448","-75.021949"
"614","http://www.crossfit801.com","625 West 3900 South Ste D2, Salt Lake City, UT","(801) 566-3048","CrossFit 801","40.6870061","-111.9090795"
"615","http://www.quantumacademyevans.com/Crossfit-Augusta.html","4408 EVANS TO LOCK ROAD, EVANS, GA","(706) 855-1981","CrossFit Augusta","33.5337464","-82.1306747"
"616","http://www.crossfitcda.com/","301 N 4th Street, Coeur D'Alene, ID","(509) 998-3185","CrossFit Coeur D'Alene","47.675319","-116.78135"
"617","http://crossfitokanagan.com/","1033 Richter Street, Kelowna, BC","(250) 807-2269","CrossFit Okanagan","49.8966971","-119.4884486"
"618","http://www.crossfitresolute.com/","1930 Airport Industrial Park Drive, Suite F, Marietta, GA","(678) 984-4142","CrossFit Resolute","33.906265","-84.495987"
"619","http://www.guerrillafitness.net/","19 Elm Street, Montclair, NJ","(973) 337-6538","CrossFit Montclair","40.80923","-74.213267"
"620","http://www.gracieva.com/crossfit.php","23520 Overland Drive, Dulles, VA","(703) 346-8828","Capital CrossFit 2","38.9623933","-77.4969766"
"622","http://www.brandtcrossfit.com/blog/","300 Burnett St., Basement,, Fort Worth, TX","(817) 291-0675","Brandt CrossFit","32.753282","-97.336364"
"623","http://www.crossfitvic.com","3-933 Ellery Street, Victoria, BC","(250) 590-8348","CrossFit Taranis","48.4372932","-123.4009378"
"625","http://www.crossfitsantacruz.com/","2521 Mission St, Suite C, Santa Cruz, CA","(831) 239-7003","CrossFit Santa Cruz","36.96007899717775","-122.05013518587913"
"626","http://www.basixgym.com/pink_basix/flashintro.htm","Unit 16 Mackintosh Place South newmoor, Irvine, Ayrshire","07771648001","CrossFit Scotland","55.6082358","-4.6421429"
"627","http://www.tricitiescrossfit.com/","761 N 17th Street, Suite 29, St. Charles, IL","(630) 492-0029","CrossFit Tri-Cities","41.9196396","-88.3352585"
"628","http://www.crossfitrevolution.typepad.com/","202 S. Moon Ave., Brandon, FL","(813) 716-6717","CrossFit Revolution","27.9353427","-82.2886188"
"629","http://www.synergystrength.ca/","#4-420 Lauriston Street, Saskatoon, SK","(306) 979-9348","CrossFit Saskatoon","52.142997","-106.655332"
"630","http://www.mbscrossfit.com","10900 W 120th Ave, Broomfield, CO","(720) 434-6282","MBS CrossFit","39.9141107","-105.1179029"
"631","http://www.crossfitredding.com","5211 Churn Creek, Redding, CA","(530) 244-1348","CrossFit Redding","40.5371474","-122.3477626"
"633","http://www.crossfitplayground.com/","181 Upton Road, Suite D, Colchester, CT","(860) 680-5583","CrossFit Playground","41.578186","-72.350371"
"634","http://www.crossfitasheville.com/","438 Haywood Road, Asheville, NC","(828) 545-0236","CrossFit Asheville","35.577212","-82.581298"
"635","http://crossfit305.com","5940 NE 4th Ave., Miami, FL","(305) 809-6390","CrossFit 305","25.8306131","-80.1881753"
"636","http://www.climbredpoint.com","5213 Raeford Rd #103, Fayetteville, NC","(910) 868-7625","RedPoint CrossFit","35.040942","-78.96639"
"637","http://www.theworkoutcf.com/","2415 SE 165th Ave, Suite 105, Vancouver,, WA","(360) 253-4767","The Workout CrossFit","45.602969","-122.502205"
"638","http://www.crossfitcastlerock.com/","4760 Castleton Way, Castle Rock, CO","(720) 810-7191","CrossFit Castle Rock","39.409061","-104.8664919"
"640","http://www.CrossFitMurfreesboro.com","831 Park Avenue, Suite A, Murfreesboro, TN","(615) 904-5683","CrossFit Murfreesboro","35.8379022","-86.3972091"
"643","http://www.crossfitwesthouston.com/","8716 Longpoint Rd Suite 212, Houston, TX","(832) 900-9637","CrossFit West Houston","29.8032064","-95.5034522"
"644","http://www.crossfitstgeorge.com/","1449 North 1400 West, Unit 6, St George, UT","(435) 275-2214","CrossFit St George","37.133579913083416","-113.61400654211423"
"645","http://www.crossfitrenegade.com/home.html","Unit 6 6468 King George Blvd, Surrey, BC","(604) 765-7457","CrossFit Renegade","49.120449","-122.844733"
"647","http://www.martialarts-austin.com/crossfit.html","11190 Circle Drive, Suite 103, Austin, TX","(512) 565-5179","CrossFit Del Sol","30.2237615","-97.9531939"
"648","http://www.crossfitcentermass.com","333 Shrewsbury St, Worcester, MA","(508) 335-9902","CrossFit CenterMass","42.2692582","-71.7786841"
"649","http://www.crossfitriverside.com","7899 Mission Grove Parkway South, Riverside, CA","(951) 616-8106","CrossFit Riverside","33.909474","-117.328452"
"650","http://www.brethrencrossfit.com/","675 Jarvis Drive, Morgan Hill, CA","(408) 390-3890","Brethren CrossFit","37.149959","-121.651195"
"651","http://www.CrossFitWaco.com","418 S 8th Street, Waco, TX","(254) 755-0228","CrossFit Waco","31.5518257","-97.1313036"
"652","http://www.crossfitbogota.com/","Cra 13 #86A-51, Bogota, ","+57 (1) 7036322","CrossFit Bogota","4.671089002152048","-74.0526618870552"
"653","http://www.crossfitproper.com/","420 East Princeland Court, Suite 4, Corona, CA","(951) 316-3323","CrossFit Proper","33.8850159","-117.5612765"
"654","http://www.crossfitstrong.com","4755 McEwen Road, Dallas, TX","(214) 575-9581","CrossFit Strong","32.928883","-96.8273935"
"655","http://www.crossfitrebellion.com/","3029 6th Ave S, Birmingham, AL","(205) 422-0721","CrossFit Rebellion","33.513803","-86.785487"
"657","http://crossfittheclub.com/","1221 E. 5800 S., Ogden, UT","(801) 388-0587","CrossFit The Club","41.15695","-111.950132"
"658","http://www.crossfit2717.com/","513 Liberty Road, Suite 2A, Flowood, MS","(601) 540-6917","CrossFit 27:17","32.341091","-90.078841"
"659","http://www.kingcrossfit.com/","2230 Lind Avenue SW Suite C100, Renton, WA","(206) 499-4499","King County CrossFit","47.4606689","-122.2234037"
"660","http://www.crossfitnewhampshire.com/","540 N. Commercial St, Manchester, NH","(603) 759-6335","CrossFit New Hampshire","42.996236","-71.467695"
"662","http://www.sportoffitness.com/","537-A Clemson Road, Columbia, SC","(540) 429-5841","Sport of Fitness CrossFit","34.1134114","-80.8502212"
"663","http://www.crossfitcc.blogspot.com","1229 Chestnut Street Basement, Philadelphia, PA","(267) 909-8210","CrossFit Center City","39.9506586","-75.1614269"
"664","http://www.jaguarfit.com","9509 N. Trask Street, Tampa, FL","(813) 908-6464","CrossFit Jaguar","28.0376897","-82.5211136"
"665","http://www.eastcoastcrossfit.com","1650 US Hwy 1, Southern Pines, NC","(910) 315-6552","East Coast CrossFit","35.1592479","-79.4121422"
"666","http://www.crossfitapex.com/","655 Forman Rd., Souderton, PA","(215) 723-2790","CrossFit Apex","40.2911894","-75.3466359"
"667","http://www.crossfittriumph.net/","39976 US Highway 19, Tarpon Springs, FL","(727) 255-2722","CrossFit Triumph","28.1339204","-82.7402897"
"668","http://www.crossfitjupiter.com/","713 Commerce Way #41, Jupiter, FL","(561) 346-9011","CrossFit Jupiter","26.926662","-80.120609"
"669","http://www.dallascrossfit.com","5626 Fondren, Dallas, TX","(979) 220-3089","CrossFit Dallas Central","32.8445851","-96.7708086"
"670","http://crossfittribe.com/","7800 Airport Highway, Pennsauken, NJ","(856) 220-0244","CrossFit Tribe","39.930762","-75.076873"
"671","http://www.reebokcrossfitreading.co.uk/","Hodsall Road, Reading, Berkshire","0044 0751 369 004","Reebok CrossFit Reading","51.4591088","-0.9830435"
"672","http://www.crossfitpleasanton.com/","7074 Commerce Circle, #A, Pleasanton, CA","(925) 353-4894","CrossFit Pleasanton","37.6981847","-121.9179265"
"673","http://www.crossfit951.com/","29723 New Hub Dr, Suite G, Menifee, CA","(805) 215-9444","CrossFit 951","33.6886343","-117.1768246"
"674","http://www.revolutionsportstraining.com/CrossFit.htm","9191 Old Seward Highway Suite 10&11, Anchorage, AK","(907) 277-2348","CrossFit Alaska","61.137947","-149.862491"
"675","http://www.runjumplift.com/","372 Lackawanna Pl., South Orange, NJ","(973) 452-6850","CrossFit Run Jump Lift","40.740275","-74.264891"
"677","http://www.nwcrossfitbellevue.com/","13203 NE 16th Street, Bellevue, WA","(206) 234-8347","Northwest CrossFit Bellevue","47.6243762","-122.1633095"
"678","http://theunitbelfast.com","Unit 12, Linfield Industrial Estate Linfield Road, Belfast, Northern Ireland","02890 233387","Reebok CrossFit Northern Ireland","54.5935924","-5.9381008"
"679","http://www.crossfitfire.com","500 Wegner Rd., Unit E, Lakemoor, IL","(815) 207-8844","CrossFit Fire","42.3213505","-88.2047565"
"680","http://www.crossfitstillwater.blogspot.com/","1615 N Country Club Rd, Suite D, Stillwater, OK","(405) 533-4033","CrossFit Stillwater","36.138032","-97.122664"
"681","http://www.hudsonvalleycrossfit.com/","186 White Schoolhouse Road, Rhinebeck, NY","(845) 876-6760","Hudson Valley CrossFit","41.93293","-73.856181"
"683","http://www.tjsgym.com","2240 4th St, San Rafael, CA","(415) 456-1610","CrossFit San Rafael","37.976724","-122.550876"
"684","http://www.crossfitbyoverload.com/","2500 Paul Minnie Ave., Santa Cruz, CA","(951) 660-0041","CrossFit by Overload","36.9847817","-121.9841123"
"685","http://crossfitnorthvancouver.com/","2455 Dollarton Highway Unit 116, North Vancouver, BC","(604) 341-0836","CrossFit North Vancouver","49.3064658","-123.0086086"
"686","http://www.crossfitbc.com","1431 Clyde Ave, West Vancouver, BC","(604) 683-2446","CrossFit West Vancouver","49.328772678819234","-123.15510752309706"
"688","http://www.crossfitcanton.com","857 Hickory Flats Hwy Ste A, Canton, GA","(770) 633-4111","CrossFit Canton","34.2240895","-84.4808829"
"689","http://pfccrossfit.com/","8840 W Russell Rd, Suite 230, Las Vegas, NV","(702) 647-1126","PFC CrossFit","36.085519","-115.284432"
"691","http://www.flexgymcrossfit.com/#!members/citr","1400 Simms Blvd, Lakewood, CO","(303) 231-9992","We Are CrossFit","39.738862","-105.127868"
"694","http://www.crossfitsouthcity.com/","3283 Ivanho, St.Louis, MO","(314) 322-2330","CrossFit South City","38.603589","-90.304328"
"695","http://www.crossfitlehighvalley.com/crossfit-lehigh-valley-swim-program","934 Marcon Blvd, Allentown, PA","(610) 349-6981","CrossFit Lehigh Valley","40.640188","-75.443871"
"696","http://www.crossfitbelltown.com/","3025 1st Ave, Seattle, WA","(206) 420-6314","CrossFit Belltown","47.618182","-122.354861"
"697","http://www.centervillecrossfit.com/","923 Senate Dr., Centerville, OH","(937) 216-6756","Centerville CrossFit","39.635163","-84.1834771"
"698","http://","6250 Modesta Rd, Suite B, El Paso, TX","(915) 276-0110","CrossFit 915 West","31.881104","-106.593224"
"699","http://www.crossfitbrevard.com/","234 South Broad Street, Unit A, Brevard, NC","(828) 553-7860","CrossFit Brevard","35.2314964","-82.7357523"
"700","http://www.crossfitgotham.com","605 N Macquesten Pkwy, Mt. Vernon, NY","(917) 575-6336","CrossFit Gotham","40.92354","-73.8417314"
"701","http://www.crossfitverobeach.com/","760 8th Court, Suite 4, Vero Beach, FL","(772) 584-3745","CrossFit Vero Beach","27.613905","-80.388239"
"702","http://www.bulldogbootcamp.com/crossfit_info/","1520 Hannah Ave, Forest Park, IL","(866) 966-3966","Bulldog CrossFit","41.8584732","-87.8087882"
"703","http://www.crossfitlifesport.com","3128 Douglas, Toledo, OH","(419) 450-9056","CrossFit LifeSport","41.6787902","-83.6049018"
"704","http://www.crossfitcombatfitness.com/","5057 N Cedar Ave, Fresno, CA","(559) 708-0977","CrossFit Combat Fitness","36.8093648","-119.7542588"
"705","http://www.crossfitmidland.com","5204 N Lamesa Rd, Midland, TX","(432) 312-8769","CrossFit Midland","32.0537012","-102.0822541"
"706","http://crossfitignite.com/","33 South Maple Ave, Unit C, Park Ridge, NJ","(973) 879-1210","CrossFit Ignite","41.030835","-74.038262"
"708","http://imtcrossfit.net/","12309 sw 131 ave, Miami, FL","(305) 878-5601","IMT CrossFit","25.653466","-80.405889"
"709","http://www.blueridgecrossfit.com","21 Design Avenue Suite B, Fletcher, NC","(828) 329-9056","Blue Ridge CrossFit","35.447032","-82.5239"
"710","http://www.inertiacrossfit.com/","3007 Longhorn Blvd, Suite 101, Austin, TX","(512) 507-1418","Naturally CrossFit","30.38147","-97.729042"
"711","http://www.crossfitmass.com/","1630 Osgood Street, North Andover, MA","(978) 494-0606","CrossFit Mass","42.7320831","-71.1132879"
"712","http://venividivicifitness.squarespace.com/","350 SW Wakerobin #8, Corvallis, OR","(541) 760-7389","CrossFit Corvallis","44.5376094","-123.2693052"
"713","http://crossfitimperialvalley.com/","505 Industry Way, Imperial, CA","(760) 355-1900","CrossFit Imperial Valley","32.8284269","-115.5795075"
"714","http://crossfitbloomington.com/","300 West Hillside Drive, Bloomington, IN","(812) 345-8373","CrossFit Bloomington","39.150578","-86.5365091"
"715","http://www.adrenalinenj.com/crossfit.cfm","7 Conover Place, Little Silver, NJ","(732) 212-0232","CrossFit Versus","40.3261969","-74.038775"
"716","http://www.crossfitftf.com","349 N. Minnewawa Ave, Clovis, CA","(916) 470-3782","CrossFit FTF","36.8366205","-119.7084352"
"717","http://alternativeathletics.com","808 4th Ave N, Billings, MT","(619) 540-6022","Alternative Athletics CrossFit","45.7953351","-108.4861772"
"718","http://www.crossfitcolosseum.com","222 Islington Ave Unit 4, Etobicoke, ON","(416) 948-7204","CrossFit Colosseum","43.6054035","-79.5072387"
"719","http://www.crossfit509.com/","9107 N Country Homes Blvd, Suites 8-9, Spokane, WA","(509) 879-6985","CrossFit 509","47.741118","-117.413775"
"720","http://www.crossfitbc.com","1240 Richards Street, Vancouver, BC","(604) 683-2446","CrossFit Yaletown","49.2753176","-123.1248461"
"721","http://www.crossfitbc.com","1240 Richards Street, Vancouver, BC","(604) 683-2446","CrossFit BC","49.2753176","-123.1248461"
"722","http://valhallacrossfit.blogspot.com/",", Gardez, Paktia","(253) 203-6901","Valhalla CrossFit","33.59811","69.224297"
"723","http://www.crossfittc.com/","5610 International Parkway, New Hope, MN","(763) 559-7091","CrossFit Twin Cities","45.0548539","-93.3968684"
"724","http://www.hardassfitness.blogspot.com/","883 Mission Lane, Honolulu, HI","(808) 256-5665","CrossFit Hawaii","21.303135","-157.8573879"
"725","http://www.fitnessbattalion.com","1242 Booth Street, Atlanta, GA","(404) 607-7424","Fitness Battalion CrossFit","33.7886926","-84.417708"
"726","http://www.crossfitcft.com/","334 Hermitage Ave., Nashville, TN","(615) 469-2381","CrossFit CFT","36.153872","-86.748397"
"727","http://www.crossfitmt.com","106 Carr Ave, Franklin, TN","(615) 429-2208","CrossFit Middle Tennessee (MT)","35.905399","-86.873424"
"729","http://www.crossfitfortmyers.com","12451 Metro Pkwy, Suite 108, Fort Myers, FL","(239) 223-4255","CrossFit Fort Myers","26.5623313","-81.8529049"
"730","http://crossfitexcel.com/WOD/","1433 Moffat Blvd, Ste. 1, Manteca, CA","(209) 249-9929","CrossFit Excel","37.7876201","-121.2028716"
"732","http://lowcountrycrossfit.com","1391 Stuart Engals Road, Mt. Pleasant, SC","(843) 607-1179","Lowcountry CrossFit","32.809652","-79.849486"
"733","http://www.crossfitconnection.com","755 Griffith Court, Burlington, ON","(905) 633-8486","CrossFit Connection","43.3672473","-79.7727714"
"735","http://www.crossfitnewzealand.co.nz/","19 Thomas Peacock Place, St Johns, Auckland","0508 CRSSFT","CrossFit New Zealand","-36.885071","174.8515023"
"736","http://www.crossfitmilford.com","49 Research Drive, Unit B, Milford, CT","(203) 376-8107","CrossFit Milford","41.238968","-73.017688"
"737","http://www.crossfitwest.com/","350 Coral St, Suite F, Santa Cruz, CA","(831) 325-6353","CrossFit West","36.9823668","-122.0329267"
"738","http://www.chandlercrossfit.com","24215 S 122nd Street, Chandler, AZ","(480) 206-3410","Chandler CrossFit","33.2271524","-111.819632"
"740","http://mmcrossfit.com/","1264 Stealth Street, Livermore, CA","(925) 980-4663","M & M CrossFit","37.691586","-121.798205"
"741","http://www.crossfitsunshinecoast.com.au/","10 Sydal Street, Caloundra, QLD","(041) 068-9809","Sunshine Coast CrossFit","-26.7950264","153.1028481"
"742","http://www.crossfitleiftimefitness.com","6056 E Baseline Rd # 129, Mesa, AZ","(480) 241-1972","CrossFit Leiftime Fitness","33.384238","-111.71624"
"744","http://www.crossfit-nation.com/","411 Needwood Ave, Easton, MD","(410) 924-8001","CrossFit Nation","38.768652","-76.069359"
"746","http://crossfitqueensny.com/","25-50 31st St., Astoria, NY","(917) 402-2910","CrossFit Queens","40.7693686","-73.9189382"
"747","http://www.crossfitx.com/","3130 Howe Pl. Suite 102, Bellingham, WA","(360) 223-2051","CrossFit X","48.772261","-122.447603"
"749","http://www.noexcusesathletics.com","305 Shawnee N Drive Ste 600, Suwanee, GA","(770) 380-7033","No Excuses Athletics CrossFit","34.04455","-84.057579"
"750","http://www.crossfitwillowglen.com","1701 Little Orchard St #20, San Jose, CA","(408) 605-2772","CrossFit Willow Glen","37.3072191","-121.8740177"
"751","http://crossfitnee.typepad.com","West 15 Whickam View, Newcastle upon Tyne, Tyne and Wear","+44 (0) 7786 91","CrossFit North East England","54.9734892","-1.6746077"
"753","http://www.crossfitlineage.com/","7525-72A Street NW, Edmonton, AB","(780) 982-2802","CrossFit Lineage","53.5113188","-113.4395663"
"754","http://www.crossfitwilmington.com","2020 Capital Drive, Wilmington, NC","(910) 690-0331","CrossFit Wilmington","34.282649","-77.8738149"
"755","http://harborcitycrossfit.com","2735 Center Place Suite 110, Melbourne, FL","(321) 600-0902","Harbor City CrossFit","28.1923127","-80.6672662"
"756","http://www.CrossFitPeru.com","Centro Naval de San Borja. Ave. San Luis block 24, San Borja, Lima","(511) 447-1510","CrossFit Peru","-12.0972833","-76.9951041"
"757","http://www.crossfitzone.ca","708 Pembroke St, Victoria, BC","(250) 380-9392","CrossFit Zone","48.4327491","-123.3645108"
"758","http://www.thebodylab.net/","2300 S. College Ave, Bryan, TX","(817) 480-5910","CrossFit BodyLab","30.647013","-96.364896"
"759","http://gocrossfit.com/main/","209 10th Ave S #149, Nashville, TN","(615) 251-1500","Go CrossFit","36.154734","-86.782191"
"760","http://www.crossfitpickering.com","1734 Orangebrook Court Unit 1, Pickering, ON","(416) 451-6214","Crossfit Pickering","43.8309298","-79.0641687"
"761","http://crossfitblackdiamond.com","101 Copperwood Way, Suite N, Oceanside, CA","(619) 865-5384","CrossFit Black Diamond","33.217317","-117.340031"
"762","http://www.crossfitpei.ca","40 Enman Crescent, Charlottetown, PE","(902) 894-4400","CrossFit PEI","46.261284","-63.148379"
"763","http://www.crossfitmansfield.com","107 West Dallas Street, Mansfield, TX","(817) 995-0954","CrossFit Mansfield","32.560277","-97.143516"
"766","http://www.crossfithoboken.com","38 Jackson St, Hoboken, NJ","(201) 259-4020","CrossFit Hoboken","40.7373047","-74.0417947"
"767","http://www.crossfiteastdecatur.com/","185 Laredo Drive, Decatur, GA","(404) 371-1355","CrossFit East Decatur","33.780491","-84.268122"
"768","http://www.defylimitations.com/","6850 W 116th Ave, Unit A, Broomfield, CO","(720) 560-1586","DEFY!","39.907274","-105.072284"
"769","http://crossfitcachevalley.com/","840 North 50 West, Logan, UT","(435) 760-0024","Crossfit Cache Valley","41.7471465","-111.8358175"
"770","http://www.lonestarcrossfit.com/","12046 Potranco, San Antonio, TX","(210) 316-1677","Lone Star Crossfit","29.4331384","-98.7215749"
"771","http://www.crossfitsouthphilly.com/","744 South 11th Street, Philadelphia, PA","(860) 982-8575","CrossFit South Philly","39.9409724","-75.16098"
"772","http://www.potomaccrossfit.com","1320 N Courthouse Rd, Arlington, VA","(202) 683-9537","Potomac CrossFit","38.8888598","-77.0838232"
"773","http://www.vikingcrossfit.com/","350 West 800 North, Orem, UT","(801) 226-1014","Viking CrossFit","40.3120846","-111.7064574"
"774","http://www.crossfitwyreforest.com/","Unit 2a, Bewdley Business Park, Long Bank, Bewdley, Worcestershire","07866634898","CrossFit Wyre Forest","52.3660555","-2.3577705"
"775","http://www.ludingtoncrossfit.com","300 S. Rath Ste. 102, Ludington, MI","(231) 357-4328","Ludington CrossFit","43.9534818","-86.4492165"
"776","http://www.goulburnvalleycrossfit.com/","4/7 Joseph Baldwin Place, Shepparton, Victoria","(040) 922-4495","Goulburn Valley CrossFit","-36.3717407","145.4261126"
"777","http://www.againfaster.com/","One Design Center Place, Suite 313, Boston, MA","(617) 771-0626","Again Faster","42.3438995","-71.034309"
"778","http://www.brandxmartialarts.com/","432 Maple Street, Ramona, CA","(760) 788-8091","CrossFit Brand X","33.046041","-116.876529"
"779","http://www.crossfitmissoula.com/","2115 1/2 South Avenue W, Missoula, MT","(406) 396-4069","CrossFit Missoula","46.8492109","-114.002867"
"780","http://www.crossfitatm.com/","7610 Eastmark Dr., College Station, TX","(979) 492-7014","CrossFit ATM","30.618352","-96.298226"
"781","http://www.hyperfitusa.com/","670 Airport Blvd., Suite 3, Ann Arbor, MI","(734) 730-0188","CrossFit Ann Arbor","42.2320432","-83.7428778"
"782","http://www.crossfitaz.typepad.com/","3151 N. Piper Avenue, Suite 101-A, Casa Grande, AZ","(480) 797-4034","CrossFit Arizona","32.950667","-111.758251"
"783","http://www.crossfitatlanta.com","200 Permalume Pl. NW, Atlanta, GA","(404) 862-6580","CrossFit Atlanta","33.80192","-84.4284725"
"784","http://www.crossfitboston.com/","114 Western Ave, Allston, MA","(617) 903-4658","CrossFit Boston","42.36281056328458","-71.12444062200927"
"785","http://www.crossfitcalgary.ca/","#17 141 Crowfoot Way NW, Calgary, AB","(403) 202-5559","CrossFit Calgary","51.1258027","-114.2079333"
"786","http://www.crossfitcentral.com/","6205-A Burnet Rd., Austin, TX","(512) 791-7215","CrossFit Central","30.337216","-97.73895"
"788","http://www.crossfitchampions.com/","17575 North Eldridge Parkway, Suite C, Tomball, TX","(281) 826-2321","CrossFit Champions","30.0222011","-95.6094689"
"789","http://www.crossfitchicago.com/","1444 W. Willow, Suite R, Chicago, IL","(773) 281-0411","CrossFit Chicago","41.914259","-87.6632698"
"790","http://www.crossfitchulavista.com/","821 Kuhn Dr. Suite 106, Chula Vista, CA","(619) 934-9934","CrossFit Chula Vista","32.6533423","-116.9672588"
"791","http://www.crossfitdc.com/","1722 14th St. NW, Washington, DC","(202) 450-6432","CrossFit DC","38.913387","-77.032403"
"792","http://www.crossfitdenver.com/","130 Lipan St, Denver, CO","(720) 515-9348","CrossFit Denver","39.719033","-105.001232"
"793","http://www.diablocrossfit.com/","2447 Estand Way, Pleasant Hill, CA","(925) 465-0015","Diablo CrossFit","37.942488","-122.053063"
"794","http://dplcrossfit.com/","#135-1057 Langford Parkway, Victoria, BC, Victoria, BC","(250) 391-8761","CrossFit DPL Vancouver Island","48.4431239","-123.5226066"
"796","http://www.crossfiteastside.com/","2869 152nd Ave NE, Redmond, WA","(206) 228-2333","CrossFit Eastside","47.6366605","-122.1376711"
"797","http://jetcitycrossfit.com/","1115 S. Elizabeth St, Seattle, WA","(425) 516-9014","Jet City CrossFit","47.5446276","-122.317735"
"798","http://www.stpetecrossfit.com","2740 25th St. N, St. Petersburg, FL","(580) 284-0653","CrossFit St. Pete","27.797116","-82.667589"
"799","http://crossfitcincinnati.net/","6725 Montgomery Road, Cincinnati, OH","(513) 351-0600","CrossFit Cincinnati","39.1901421","-84.4098054"
"800","http://www.crossfitethos.com/","23001 Del Lago Dr., Suite B-2, Laguna Hills, CA","(949) 305-3334","CrossFit Ethos","33.628664","-117.72787"
"801","http://www.crossfitthreshold.com/","8771 SW 133rd St, Miami, FL","(305) 546-7368","CrossFit Threshold","25.646885","-80.335113"
"802","http://www.southbaltimorecf.com/","1100 Russel St, Baltimore, MD","(443) 223-1736","South Baltimore CrossFit","39.2791919","-76.6241898"
"803","http://www.treasurecoastcrossfit.com","144 Sebastian Blvd, Suite 103, Sebastian, FL","(772) 584-9310","Treasure Coast CrossFit","27.7672367","-80.5131287"
"804","http://","407 N Hollywood Road, Suite B, Houma, LA","(985) 381-5231","CrossFit Hollywood North","29.6118277","-90.7294526"
"805","http://reebokcrossfitramsay.com/","2600 Portland St SE, Calgary, AB","(403) 969-8362","Reebok CrossFit Ramsay","51.0311725","-114.032391"
"806","http://www.crossfithollywood.com","310 S. La Brea Ave, Ste C, Los Angeles, CA","(619) 981-2739","CrossFit Hollywood","34.068509","-118.343683"
"808","http://www.crossfitgp.com","123 SW M Street, Grants Pass, OR","(541) 450-9588","CrossFit Grants Pass (GP)","42.433891","-123.331303"
"809","http://www.crossfit-inferno.com","207 Suburban Rd Unit 1, San Luis Obispo, CA","(805) 710-2019","CrossFit Inferno","35.2440235","-120.6675555"
"810","http://www.crossfitdurham.com/","410 West Geer Street, Durham, NC","(571) 224-3706","CrossFit Durham","36.004031","-78.900504"
"811","http://www.crossfitalliance.com/","600 Laurens Road, Unit E, Greenville, SC","(864) 420-1646","CrossFit Alliance","34.850245","-82.375789"
"812","http://crossfitcharleston.blogspot.com/","450 Deanna Lane, Unit B2, Wando, SC","(843) 670-1370","CrossFit Charleston","32.9050727","-79.9179043"
"813","http://www.crossfitlakecity.com/","195 Hazel Ave, Coeur d ' Alene, ID","(307) 680-6221","CrossFit Lake City","47.6902519","-116.7838782"
"814","http://www.crossfitlakecountry.com/","4439 Vettelson Rd, Hartland, WI","(262) 227-3447","CrossFit Lake Country","43.100729","-88.365286"
"815","http://www.level10crossfit.com/","2628 Lincoln Blvd., Oroville, CA","(530) 403-9866","Level 10 CrossFit","39.5065867","-121.5557976"
"819","http://www.crossfitfairfax.com/","2831 Dorr Ave, Fairfax, VA","(703) 626-0232","CrossFit Fairfax","38.8774102","-77.2337168"
"820","http://crossfitflagstaff.com/","1072 E. Old Canyon Ct, Flagstaff, AZ","(928) 275-2175","CrossFit Flagstaff","35.190061","-111.638427"
"821","http://www.crossfitgulfcoast.com/","4463 Ashton Road, Unit C, Sarasota, FL","(941) 228-8341","CrossFit Gulf Coast","27.2766919","-82.4794855"
"822","http://crossfithb.com/","19400 Beach Blvd., Suite 4 & 5, Huntington Beach, CA","(714) 553-9226","CrossFit Huntington Beach (HB)","33.6809013","-117.9881833"
"823","http://www.crossfithel.com/","4830 NE MLK, Portland, OR","(503) 522-0233","CrossFit HEL","45.5578374","-122.661108"
"824","http://crossfitkansascity.com/","5317 W 94th Terrace, Prairie Village, KS","(913) 905-1944","CrossFit Kansas City","38.9579731","-94.6473797"
"825","http://www.crossfitlondonuk.com/","Arch 9 Malcolm Place, Bethnal Green, London","07969922831","CrossFit London UK","51.527408","-0.0660179"
"826","http://www.crossfitlongbeach.com/","2431 Orange Avenue, Signal Hill, CA","(562) 492-6951","CrossFit Long Beach","33.80164","-118.1765457"
"827","http://www.crossfitlasvegas.com/","7540 Dean Martin Dr. Ste 508, Las Vegas, NV","(702) 900-2358","CrossFit Las Vegas","36.052553","-115.182936"
"828","http://www.crossfitla.com","3201 Santa Monica Blvd., Santa Monica, CA","(310) 260-9550","CrossFit Los Angeles (LA)","34.0380071","-118.4685391"
"829","http://crossfitmarina.typepad.com/","15471 La Salle Lane, Huntington Beach, CA","(714) 720-7239","CrossFit Marina","33.737462","-118.019694"
"830","http://www.crossfitmelbourne.com.au/","First floor, 904 Glen Huntly Rd, Caulfield South, VIC","(040) 936-9748","CrossFit Melbourne","-37.8876043","145.0278334"
"831","http://www.crossfitmichiana.com/","2774 Faith Avenue, Elkhart, IN","(574) 262-3900","CrossFit Michiana","41.7239724","-86.0237753"
"832","http://www.mikesgym.org/","32067 Via Vera, Bonsall, CA","(760) 941-5852","CrossFit Mikes Gym","33.294097","-117.188636"
"833","http://crossfitmontreal.ca/","4850 Saint-Ambroise suite 100, Montreal, QC","(514) 838-6073","CrossFit Montreal","45.4697146","-73.5876374"
"834","http://www.crossfitgymert.nl/","Amer 37, 5422 VP Gemert, ","0031-492-324967","CrossFit Gymert Nederland","51.5639738","5.707079"
"835","http://www.crossfitnewcastle.com.au","1 Stephen St Georgetown, Newcastle, NSW","+0410 340 927","CrossFit Newcastle","-32.912115","151.73114"
"836","http://www.crossfitseattle.com","4201 9th Ave NW, Seattle, WA","(206) 992-7330","CrossFit Seattle","47.6578112","-122.3672477"
"837","http://www.crossfitnyc.com/","44 W 28th St., 2nd Floor, New York, NY","(212) 274-1085","CrossFit NYC","40.7456231","-73.9898357"
"838","http://www.crossfitoahu.com/","556 Reed Lane, Honolulu, HI","(808) 351-0466","CrossFit Oahu","21.3019602","-157.8606694"
